상가업소번호,상호명,상권업종대분류코드,상권업종대분류명,상권업종중분류코드,상권업종중분류명,상권업종소분류코드,상권업종소분류명,표준산업분류코드,표준산업분류명,시군구코드,시군구명,행정동코드,행정동명,법정동코드,법정동명,지번코드,지번주소,도로명코드,도로명,도로명주소,구우편번호,신우편번호,경도,위도,시,구,동,그외주소,구_동,학교,술집,노래방,다른 포토부스 개수,Closest_Location_1,Closest_Location_2,Closest_Location_3,Fee_1,Fee_2,Fee_3,distance_1,distance_2,distance_3,estimated_fee
MA010120220805486370,하루필름,M1,과학·기술,M113,사진 촬영,M11301,사진촬영업,S96999,그 외 기타 달리 분류되지 않은 개인 서비스업,11440,마포구,11440690,망원1동,1144012300,망원동,1144012300103990036,서울특별시 마포구 망원동 399-36,114403113024,서울특별시 마포구 포은로,서울특별시 마포구 포은로 87,121821,4015,126.905095308749,37.5548150292421,서울특별시,마포구,망원동,399-36,마포구 망원동,35,225,45,0,망원역,홍대/합정,당산역,41.4,56.7,37.1,6810.280636098137,6232.531073021197,9418.175791553334,45.67878099723127
MA010120220807103991,하루필름,M1,과학·기술,M113,사진 촬영,M11301,사진촬영업,S96999,그 외 기타 달리 분류되지 않은 개인 서비스업,11500,강서구,11500603,가양1동,1150010500,마곡동,1150010500107940001,서울특별시 강서구 마곡동 794-1,115003115001,서울특별시 강서구 강서로,서울특별시 강서구 강서로 385,157805,7803,126.838284382893,37.5600783011571,서울특별시,강서구,마곡동,794-1,강서구 마곡동,52,221,39,0,화곡,목동,오류동역,28.7,35.1,47.1,12421.471744175002,12108.955267618043,15194.116706342922,36.60568706788635
MA010120220807117753,스튜디오앳,M1,과학·기술,M113,사진 촬영,M11301,사진촬영업,M73302,상업용 사진 촬영업,11440,마포구,11440660,서교동,1144012000,서교동,1144012000103840009,서울특별시 마포구 서교동 384-9,114404139418,서울특별시 마포구 양화로11길,서울특별시 마포구 양화로11길 68,121839,4035,126.913011969271,37.5520949607962,서울특별시,마포구,서교동,384-9,마포구 서교동,33,849,87,0,망원역,홍대/합정,동교/연남,41.4,56.7,51.8,6279.591169935202,5575.818077726984,8800.619299260445,49.969495233562775
MA010120220808009151,하루필름,M1,과학·기술,M113,사진 촬영,M11301,사진촬영업,M73301,인물 사진 및 행사용 영상 촬영업,11440,마포구,11440660,서교동,1144012000,서교동,1144012000103660019,서울특별시 마포구 서교동 366-19,114403113015,서울특별시 마포구 어울마당로,서울특별시 마포구 어울마당로 75,121893,4042,126.92128839809,37.5518555025972,서울특별시,마포구,서교동,366-19,마포구 서교동,43,974,78,0,홍대/합정,동교/연남,망원역,56.7,51.8,41.4,5637.508657184006,4859.806452059479,8099.702458747267,50.57210194306137
MA010120220808511358,포토이즘박스,M1,과학·기술,M113,사진 촬영,M11301,사진촬영업,M73301,인물 사진 및 행사용 영상 촬영업,11305,강북구,11305635,수유3동,1130510300,수유동,1130510300101920035,서울특별시 강북구 수유동 192-35,113054124141,서울특별시 강북구 도봉로87길,서울특별시 강북구 도봉로87길 32,142878,1072,127.024145543069,37.6390520615216,서울특별시,강북구,수유동,192-35,강북구 수유동,30,287,173,0,수유,미아사거리,성신여대,37.0,37.5,53.3,8127.1681782278,9777.586243176973,7643.794161855789,42.86594923899757
MA010120220809366167,포토이즘박스,M1,과학·기술,M113,사진 촬영,M11301,사진촬영업,M73301,인물 사진 및 행사용 영상 촬영업,11200,성동구,11200660,성수1가2동,1120011400,성수동1가,1120011400106850423,서울특별시 성동구 성수동1가 685-423,112004109318,서울특별시 성동구 서울숲2길,서울특별시 성동구 서울숲2길 17-2,133825,4768,127.040723978408,37.5471736288453,서울특별시,성동구,성수동1가,685-423,성동구 성수동1가,39,114,15,0,왕십리,압구정,청담,45.0,50.6,63.0,6436.795402733657,5950.261010336458,3820.1021926962567,53.65067248338964
MA010120220810382027,하루필름,M1,과학·기술,M113,사진 촬영,M11301,사진촬영업,S96999,그 외 기타 달리 분류되지 않은 개인 서비스업,11110,종로구,11110540,삼청동,1111014300,화동,1111014300101180000,서울특별시 종로구 화동 118,111104100112,서울특별시 종로구 북촌로5길,서울특별시 종로구 북촌로5길 24,110230,3055,126.98362183365,37.5795298997609,서울특별시,종로구,화동,118,종로구 화동,58,219,11,0,종로,광화문,시청,68.0,83.2,87.6,673.9268670118153,2290.0604305784427,2484.5450014497387,77.7368353172908
MA010120220811661546,포토이즘컬러드,M1,과학·기술,M113,사진 촬영,M11301,사진촬영업,M73301,인물 사진 및 행사용 영상 촬영업,11440,마포구,11440660,서교동,1144012000,서교동,1144012000103580048,서울특별시 마포구 서교동 358-48,114404139458,서울특별시 마포구 와우산로21길,서울특별시 마포구 와우산로21길 36,121838,4040,126.921981414207,37.5524565180965,서울특별시,마포구,서교동,358-48,마포구 서교동,42,994,78,0,홍대/합정,동교/연남,망원역,56.7,51.8,41.4,5552.03221884682,4787.546759631175,8023.131119685578,50.58124472018987
MA010120220811900672,포토이즘박스,M1,과학·기술,M113,사진 촬영,M11301,사진촬영업,M73301,인물 사진 및 행사용 영상 촬영업,11410,서대문구,11410585,신촌동,1141011600,창천동,1141011600100130009,서울특별시 서대문구 창천동 13-9,114104136067,서울특별시 서대문구 명물길,서울특별시 서대문구 명물길 26,120833,3777,126.938235560335,37.5578748908068,서울특별시,서대문구,창천동,13-9,서대문구 창천동,79,362,67,0,신촌/이대,동교/연남,공덕역,47.5,51.8,60.6,4004.2077795270893,3286.165627682464,6483.544225294656,52.603893787029136
MA010120220812869486,포토이즘,M1,과학·기술,M113,사진 촬영,M11301,사진촬영업,M73301,인물 사진 및 행사용 영상 촬영업,11215,광진구,11215710,화양동,1121510700,화양동,1121510700100470081,서울특별시 광진구 화양동 47-81,112154112316,서울특별시 광진구 아차산로29길,서울특별시 광진구 아차산로29길 19,143917,5018,127.068358061907,37.5418264016476,서울특별시,광진구,화양동,47-81,광진구 화양동,50,414,137,0,건대입구,군자,뚝섬,46.7,32.1,51.0,8878.73429357557,8463.435345619635,6119.818494593907,43.62252121953033
MA010120220813628642,인생네컷,M1,과학·기술,M113,사진 촬영,M11301,사진촬영업,S96999,그 외 기타 달리 분류되지 않은 개인 서비스업,11215,광진구,11215710,화양동,1121510700,화양동,1121510700100050072,서울특별시 광진구 화양동 5-72,112154112320,서울특별시 광진구 아차산로33길,서울특별시 광진구 아차산로33길 14,143914,5017,127.07020247513,37.5409218663542,서울특별시,광진구,화양동,5-72,광진구 화양동,58,408,136,0,건대입구,군자,뚝섬,46.7,32.1,51.0,9069.020372745234,8645.879635500663,6311.2492976332105,43.61215880532799
MA010120220813705218,포토시그니처,M1,과학·기술,M113,사진 촬영,M11301,사진촬영업,S96999,그 외 기타 달리 분류되지 않은 개인 서비스업,11470,양천구,11470640,신정3동,1147010100,신정동,1147010100111830003,서울특별시 양천구 신정동 1183-3,114703005068,서울특별시 양천구 중앙로,서울특별시 양천구 중앙로 267,158864,8073,126.852558989394,37.5200767643635,서울특별시,양천구,신정동,1183-3,양천구 신정동,59,113,59,0,화곡,목동,오류동역,28.7,35.1,47.1,12660.202531234949,11719.624909079377,14999.210083976164,36.643427581911254
MA010120220813777365,미스터포토,M1,과학·기술,M113,사진 촬영,M11301,사진촬영업,M73301,인물 사진 및 행사용 영상 촬영업,11305,강북구,11305595,번1동,1130510200,번동,1130510200104630019,서울특별시 강북구 번동 463-19,113054124568,서울특별시 강북구 한천로134길,서울특별시 강북구 한천로134길 10-3,142868,1056,127.028477901339,37.6396104166742,서울특별시,강북구,번동,463-19,강북구 번동,21,294,182,0,수유,미아사거리,성신여대,37.0,37.5,53.3,8379.88613052203,10006.857164745032,7777.384241782139,42.88176598786211
MA0101202211A0060020,스튜디오앳,M1,과학·기술,M113,사진 촬영,M11301,사진촬영업,M73301,인물 사진 및 행사용 영상 촬영업,11650,서초구,11650652,양재2동,1165010200,양재동,1165010200102780013,서울특별시 서초구 양재동 278-13,116504163094,서울특별시 서초구 논현로17길,서울특별시 서초구 논현로17길 11,137895,6775,127.045092613789,37.4761158507762,서울특별시,서초구,양재동,278-13,서초구 양재동,42,136,57,0,강남대로,남부터미널,교대역,86.3,39.0,41.0,12589.294606888423,11165.432415914052,11001.5429757429,54.76704563114582
MA0101202210A0006052,그믐달셀프스튜디오,M1,과학·기술,M113,사진 촬영,M11301,사진촬영업,M73301,인물 사진 및 행사용 영상 촬영업,11215,광진구,11215710,화양동,1121510700,화양동,1121510700100050029,서울특별시 광진구 화양동 5-29,112154112320,서울특별시 광진구 아차산로33길,서울특별시 광진구 아차산로33길 40,143914,5017,127.070676705451,37.5419167562543,서울특별시,광진구,화양동,5-29,광진구 화양동,67,403,134,0,건대입구,군자,뚝섬,46.7,32.1,51.0,9060.268022929527,8660.238264852573,6289.08420583034,43.6199315260754
MA010120220800032256,우리동네사진관,M1,과학·기술,M113,사진 촬영,M11301,사진촬영업,M73303,사진 처리업,11110,종로구,11110615,종로1.2.3.4가동,1111013500,관철동,1111013500100160005,서울특별시 종로구 관철동 16-5,111103100013,서울특별시 종로구 종로,서울특별시 종로구 종로 70,110111,3189,126.985156376254,37.5699019669231,서울특별시,종로구,관철동,16-5,종로구 관철동,51,689,66,0,명동,시청,충무로,140.4,87.6,53.4,954.4688378463339,1402.099470791981,2172.779346302503,99.53979504633232
MA010120220803557704,포토하임,M1,과학·기술,M113,사진 촬영,M11301,사진촬영업,S96999,그 외 기타 달리 분류되지 않은 개인 서비스업,11440,마포구,11440660,서교동,1144012000,서교동,1144012000103460001,서울특별시 마포구 서교동 346-1,114403113015,서울특별시 마포구 어울마당로,서울특별시 마포구 어울마당로 128,121837,4055,126.924277318773,37.5557121892527,서울특별시,마포구,서교동,346-1,마포구 서교동,44,1098,79,0,동교/연남,홍대/합정,망원역,51.8,56.7,41.4,5208.004890309462,4536.0058270657855,7739.275629262856,50.71622100778309
MA010120220803634128,모션픽쳐,M1,과학·기술,M113,사진 촬영,M11301,사진촬영업,M73301,인물 사진 및 행사용 영상 촬영업,11200,성동구,11200650,성수1가1동,1120011400,성수동1가,1120011400106850696,서울특별시 성동구 성수동1가 685-696,112004109318,서울특별시 성동구 서울숲2길,서울특별시 성동구 서울숲2길 32-14,133923,4769,127.042893398502,37.5456684606712,서울특별시,성동구,성수동1가,685-696,성동구 성수동1가,38,133,24,0,왕십리,압구정,청담,45.0,50.6,63.0,6686.330394952273,6177.465776883546,4074.0413506434015,53.61403979348328
MA010120220804028805,스튜디오,M1,과학·기술,M113,사진 촬영,M11301,사진촬영업,M73301,인물 사진 및 행사용 영상 촬영업,11680,강남구,11680565,청담동,1168010400,청담동,1168010400100110012,서울특별시 강남구 청담동 11-12,116804166300,서울특별시 강남구 도산대로78길,서울특별시 강남구 도산대로78길 25,135949,6063,127.046608190161,37.5223252469289,서울특별시,강남구,청담동,11-12,강남구 청담동,30,477,23,0,청담,도산대로,논현역,63.0,45.5,66.1,8529.008021756548,7559.295436674734,6324.509044288116,58.31377849368174
MA010120220804024035,더필름,M1,과학·기술,M113,사진 촬영,M11301,사진촬영업,M73301,인물 사진 및 행사용 영상 촬영업,11680,강남구,11680531,논현2동,1168010800,논현동,1168010800100820021,서울특별시 강남구 논현동 82-21,116804166791,서울특별시 강남구 학동로31길,서울특별시 강남구 학동로31길 18,135818,6052,127.031883971575,37.5157899763678,서울특별시,강남구,논현동,82-21,강남구 논현동,23,360,35,0,논현역,도산대로,신사역,66.1,45.5,71.4,8227.887291059988,7002.399681961202,6449.199414494754,60.988544377484914
MA010120220805035635,하루필름,M1,과학·기술,M113,사진 촬영,M11301,사진촬영업,M73301,인물 사진 및 행사용 영상 촬영업,11305,강북구,11305635,수유3동,1130510300,수유동,1130510300102240015,서울특별시 강북구 수유동 224-15,113054124027,서울특별시 강북구 노해로8길,서울특별시 강북구 노해로8길 29,142878,1072,127.024209377922,37.638502958819,서울특별시,강북구,수유동,224-15,강북구 수유동,34,294,174,0,수유,미아사거리,성신여대,37.0,37.5,53.3,8077.58811024091,9725.428054523167,7584.661450819649,42.86938854311059
MA0101202302A0025074,제이에스스튜디오,M1,과학·기술,M113,사진 촬영,M11301,사진촬영업,M73301,인물 사진 및 행사용 영상 촬영업,11380,은평구,11380560,구산동,1138010500,구산동,1138010500103090018,서울특별시 은평구 구산동 309-18,113804133109,서울특별시 은평구 서오릉로25가길,서울특별시 은평구 서오릉로25가길 3-4,122806,3424,126.905435315594,37.6174129487956,서울특별시,은평구,구산동,309-18,은평구 구산동,29,21,7,0,연신내,불광역,동교/연남,42.4,38.8,51.8,7851.708792667535,8873.874056607494,10543.152668502715,44.06855880544307
MA0101202303A0077497,포토그레이,M1,과학·기술,M113,사진 촬영,M11301,사진촬영업,M73301,인물 사진 및 행사용 영상 촬영업,11530,구로구,11530540,구로3동,1153010200,구로동,1153010200111240037,서울특별시 구로구 구로동 1124-37,115304148338,서울특별시 구로구 디지털로32나길,서울특별시 구로구 디지털로32나길 16,152880,8391,126.900547687578,37.4837435814543,서울특별시,구로구,구로동,1124-37,구로구 구로동,39,226,106,0,독산/시흥,신림역,영등포역,31.2,70.9,34.1,12285.670720363347,10737.728505980318,13682.010500081116,46.1526297402669
MA0101202305A0020315,더필름,M1,과학·기술,M113,사진 촬영,M11301,사진촬영업,M73301,인물 사진 및 행사용 영상 촬영업,11500,강서구,11500603,가양1동,1150010500,마곡동,1150010500107970001,서울특별시 강서구 마곡동 797-1,115002005007,서울특별시 강서구 공항대로,서울특별시 강서구 공항대로 247,157805,7803,126.834810474319,37.5592962102715,서울특별시,강서구,마곡동,797-1,강서구 마곡동,42,210,32,0,화곡,목동,오류동역,28.7,35.1,47.1,12737.715966305579,12416.182610195061,15507.246516067315,36.61418308842015
MA0101202303A0053455,사진촬영업,M1,과학·기술,M113,사진 촬영,M11301,사진촬영업,M73303,사진 처리업,11650,서초구,11650530,서초3동,1165010800,서초동,1165010800114710016,서울특별시 서초구 서초동 1471-16,116504163192,서울특별시 서초구 명달로4길,서울특별시 서초구 명달로4길 81,137868,6712,127.010296942066,37.4809475185203,서울특별시,서초구,서초동,1471-16,서초구 서초동,47,75,16,0,남부터미널,교대역,강남대로,39.0,41.0,86.3,10935.36632713762,9300.17751101892,10011.23565014456,55.51472395409529
MA0101202305A0107800,포토이즘박스,M1,과학·기술,M113,사진 촬영,M11301,사진촬영업,M73301,인물 사진 및 행사용 영상 촬영업,11215,광진구,11215710,화양동,1121510700,화양동,1121510700100180026,서울특별시 광진구 화양동 18-26,112154112202,서울특별시 광진구 동일로30길,서울특별시 광진구 동일로30길 51,143916,5008,127.070210528195,37.5475626769045,서울특별시,광진구,화양동,18-26,광진구 화양동,49,361,109,0,군자,건대입구,뚝섬,32.1,46.7,51.0,8778.747508647219,8496.010318310275,5952.731136130358,43.75800814724083
MA0101202303A0015531,픽닷,M1,과학·기술,M113,사진 촬영,M11301,사진촬영업,M73301,인물 사진 및 행사용 영상 촬영업,11215,광진구,11215710,화양동,1121510700,화양동,1121510700100470072,서울특별시 광진구 화양동 47-72,112154112316,서울특별시 광진구 아차산로29길,서울특별시 광진구 아차산로29길 15,143917,5018,127.068270010036,37.5416274756053,서울특별시,광진구,화양동,47-72,광진구 화양동,48,420,137,0,건대입구,군자,뚝섬,46.7,32.1,51.0,8881.15324841468,8461.176882674416,6125.018476734835,43.62086886254977
MA0101202305A0089659,이미지팩토리,M1,과학·기술,M113,사진 촬영,M11301,사진촬영업,M73301,인물 사진 및 행사용 영상 촬영업,11380,은평구,11380510,녹번동,1138010200,녹번동,1138010200101220003,서울특별시 은평구 녹번동 122-3,113804133066,서울특별시 은평구 녹번로7길,서울특별시 은평구 녹번로7길 22-2,122832,3377,126.928931070387,37.6069333196834,서울특별시,은평구,녹번동,122-3,은평구 녹번동,39,121,63,0,불광역,연신내,동교/연남,38.8,42.4,51.8,5495.911143853608,6629.977013967589,8164.834019692007,43.8963003394142
MA0101202305A0052447,비비드뮤지엄,M1,과학·기술,M113,사진 촬영,M11301,사진촬영업,M73301,인물 사진 및 행사용 영상 촬영업,11680,강남구,11680640,역삼1동,1168010100,역삼동,1168010100106190002,서울특별시 강남구 역삼동 619-2,116804166003,서울특별시 강남구 강남대로102길,서울특별시 강남구 강남대로102길 20,135908,6128,127.0272859862,37.5022544172394,서울특별시,강남구,역삼동,619-2,강남구 역삼동,29,564,89,0,강남대로,교대역,논현역,86.3,41.0,66.1,9288.408702790312,7882.457498011911,7802.656839912688,63.854693334357876
MA0101202305A0069970,폴라스튜디오,M1,과학·기술,M113,사진 촬영,M11301,사진촬영업,M73301,인물 사진 및 행사용 영상 촬영업,11590,동작구,11590620,사당1동,1159010700,사당동,1159010700110380051,서울특별시 동작구 사당동 1038-51,115904157164,서울특별시 동작구 동작대로7길,서울특별시 동작구 동작대로7길 56,156826,7025,126.979157594442,37.4785110278423,서울특별시,동작구,사당동,1038-51,동작구 사당동,26,307,95,0,사당,서울대입구역,남부터미널,44.3,60.6,39.0,10814.734272248486,9048.299872583897,10630.116857098186,48.305440310600794
MA0101202308A0016435,스튜디오원,M1,과학·기술,M113,사진 촬영,M11301,사진촬영업,M73302,상업용 사진 촬영업,11440,마포구,11440585,도화동,1144010400,도화동,1144010400101840019,서울특별시 마포구 도화동 184-19,114404139267,서울특별시 마포구 새창로4나길,서울특별시 마포구 새창로4나길 7,121812,4169,126.952068867054,37.5415364475977,서울특별시,마포구,도화동,184-19,마포구 도화동,42,220,57,0,공덕역,숙명여대,용산역,60.6,43.6,34.1,4429.214114758267,2901.1171099573316,6060.79619881042,46.688402380106474
MA0106202309A2284031,에브리세컨드,M1,과학·기술,M113,사진 촬영,M11301,사진촬영업,M73301,인물 사진 및 행사용 영상 촬영업,11200,성동구,11200650,성수1가1동,1120011400,성수동1가,1120011400106560036,서울특별시 성동구 성수동1가 656-36,112004109156,서울특별시 성동구 뚝섬로1길,서울특별시 성동구 뚝섬로1길 25,133821,4778,127.046382168442,37.5436332843543,서울특별시,성동구,성수동1가,656-36,성동구 성수동1가,35,222,55,1,청담,압구정,도산대로,63.0,50.6,45.5,7066.525352921539,6535.019283029632,4453.057711843845,52.452277768423095
MA0101202309A0006352,코즈닉스튜디오,M1,과학·기술,M113,사진 촬영,M11301,사진촬영업,M73301,인물 사진 및 행사용 영상 촬영업,11290,성북구,11290555,삼선동,1129010500,동소문동2가,1129010500100100000,서울특별시 성북구 동소문동2가 10,112903107003,서울특별시 성북구 동소문로,서울특별시 성북구 동소문로 8,136032,2860,127.007140142378,37.5886503621109,서울특별시,성북구,동소문동2가,10,성북구 동소문동2가,86,275,49,0,혜화동,성신여대,동대문,51.4,53.3,48.0,2976.4305001134862,4245.033502460068,1955.724151389552,50.572846654324174
MA010120220807565308,포토하임,M1,과학·기술,M113,사진 촬영,M11301,사진촬영업,M73301,인물 사진 및 행사용 영상 촬영업,11170,용산구,11170520,용산2가동,1117010200,용산동2가,1117010200100450005,서울특별시 용산구 용산동2가 45-5,111703102005,서울특별시 용산구 신흥로,서울특별시 용산구 신흥로 40,140842,4339,126.987425215665,37.5419440427346,서울특별시,용산구,용산동2가,45-5,용산구 용산동2가,23,335,7,0,이태원,명동,남대문,63.4,140.4,64.3,3874.68502237349,2269.0352569675347,3792.0985621836153,93.38603807931689
MA010120220808064958,폴라스튜디오,M1,과학·기술,M113,사진 촬영,M11301,사진촬영업,M73301,인물 사진 및 행사용 영상 촬영업,11680,강남구,11680545,압구정동,1168010700,신사동,1168010700106570026,서울특별시 강남구 신사동 657-26,116804166282,서울특별시 강남구 도산대로51길,서울특별시 강남구 도산대로51길 37,135897,6018,127.037989437328,37.5257153980974,서울특별시,강남구,신사동,657-26,강남구 신사동,45,528,27,0,도산대로,청담,압구정,45.5,63.0,50.6,7725.237303292585,6717.327321548968,5628.051289135532,53.156457362131924
MA010120220808414099,여백스튜디오,M1,과학·기술,M113,사진 촬영,M11301,사진촬영업,M73301,인물 사진 및 행사용 영상 촬영업,11680,강남구,11680531,논현2동,1168010800,논현동,1168010800102410003,서울특별시 강남구 논현동 241-3,116803122011,서울특별시 강남구 학동로,서울특별시 강남구 학동로 342,135830,6099,127.040819500836,37.5167459116615,서울특별시,강남구,논현동,241-3,강남구 논현동,33,314,18,0,도산대로,논현역,청담,45.5,66.1,63.0,8631.95367437855,7518.073865752459,6634.700327022282,58.6034822505377
MA010120220808609456,매직포토,M1,과학·기술,M113,사진 촬영,M11301,사진촬영업,M73301,인물 사진 및 행사용 영상 촬영업,11380,은평구,11380552,갈현2동,1138010400,갈현동,1138010400104550008,서울특별시 은평구 갈현동 455-8,113804133158,서울특별시 은평구 연서로27길,서울특별시 은평구 연서로27길 8-5,122959,3331,126.918679756067,37.6179945867244,서울특별시,은평구,갈현동,455-8,은평구 갈현동,58,205,81,0,연신내,불광역,동교/연남,42.4,38.8,51.8,6981.058713914322,8154.6291561893195,9573.491819129573,44.073043886925205
MA010120220810045886,모노맨션,M1,과학·기술,M113,사진 촬영,M11301,사진촬영업,M73301,인물 사진 및 행사용 영상 촬영업,11200,성동구,11200670,성수2가1동,1120011500,성수동2가,1120011500103100055,서울특별시 성동구 성수동2가 310-55,112004109413,서울특별시 성동구 연무장길,서울특별시 성동구 연무장길 30,133827,4781,127.052782456508,37.543108126917,서울특별시,성동구,성수동2가,310-55,성동구 성수동2가,44,274,66,0,건대입구,청담,뚝섬,46.7,63.0,51.0,7587.093400437865,7095.268590457462,4916.777257998039,53.51017785789822
MA010120220810213940,스튜디오원,M1,과학·기술,M113,사진 촬영,M11301,사진촬영업,M73301,인물 사진 및 행사용 영상 촬영업,11590,동작구,11590640,사당3동,1159010700,사당동,1159010700102200039,서울특별시 동작구 사당동 220-39,115904157307,서울특별시 동작구 사당로9나길,서울특별시 동작구 사당로9나길 5,156819,7003,126.970281598628,37.4859668111707,서울특별시,동작구,사당동,220-39,동작구 사당동,39,126,47,0,사당,서울대입구역,노량진,44.3,60.6,26.4,10006.379309902492,8226.622549638798,10075.692256651626,44.31708014585685
MA010120220811415878,폴라스튜디오,M1,과학·기술,M113,사진 촬영,M11301,사진촬영업,J59120,"영화, 비디오물 및 방송 프로그램 제작 관련 서비스업",11680,강남구,11680545,압구정동,1168010700,신사동,1168010700106550004,서울특별시 강남구 신사동 655-4,116804166473,서울특별시 강남구 선릉로155길,서울특별시 강남구 선릉로155길 13,135897,6019,127.038560139137,37.5253235826494,서울특별시,강남구,신사동,655-4,강남구 신사동,45,524,29,0,도산대로,청담,압구정,45.5,63.0,50.6,7791.542891173113,6783.537358360311,5689.474657342339,53.15500939441736
MA010120220811367494,포토시그니처,M1,과학·기술,M113,사진 촬영,M11301,사진촬영업,S96999,그 외 기타 달리 분류되지 않은 개인 서비스업,11350,노원구,11350619,중계본동,1135010600,중계동,1135010600103640020,서울특별시 노원구 중계동 364-20,113503110009,서울특별시 노원구 한글비석로,서울특별시 노원구 한글비석로 250,139861,1734,127.07699193891,37.6500194687633,서울특별시,노원구,중계동,364-20,노원구 중계동,45,30,11,0,상계역,상봉역,수유,26.2,46.5,37.0,12033.860752394996,13433.07014877336,10579.74662322144,36.382617842669795
MA010120220812002334,사진촬영업,M1,과학·기술,M113,사진 촬영,M11301,사진촬영업,M73301,인물 사진 및 행사용 영상 촬영업,11170,용산구,11170580,효창동,1117011900,효창동,1117011900100050321,서울특별시 용산구 효창동 5-321,111704106088,서울특별시 용산구 백범로47길,서울특별시 용산구 백범로47길 9,140897,4319,126.958583538681,37.5409543420079,서울특별시,용산구,효창동,5-321,용산구 효창동,76,211,55,0,공덕역,숙명여대,용산역,60.6,43.6,34.1,4226.52695199421,2578.6826975329104,5624.140875294235,46.60894680370392
MA010120220812107239,셀픽스,M1,과학·기술,M113,사진 촬영,M11301,사진촬영업,S96999,그 외 기타 달리 분류되지 않은 개인 서비스업,11215,광진구,11215710,화양동,1121510700,화양동,1121510700100080057,서울특별시 광진구 화양동 8-57,112154112198,서울특별시 광진구 동일로24길,서울특별시 광진구 동일로24길 94,143914,5017,127.070002863048,37.542416040014,서울특별시,광진구,화양동,8-57,광진구 화양동,62,404,134,0,건대입구,군자,뚝섬,46.7,32.1,51.0,8983.062453750093,8589.550025409128,6209.499297256273,43.62522747182312
MA010120220812861757,엘스튜디오,M1,과학·기술,M113,사진 촬영,M11301,사진촬영업,M73301,인물 사진 및 행사용 영상 촬영업,11140,중구,11140570,필동,1114015800,충무로3가,1114015800100590012,서울특별시 중구 충무로3가 59-12,111404103227,서울특별시 중구 수표로2길,서울특별시 중구 수표로2길 1,100013,4554,126.9906152082,37.5621637615551,서울특별시,중구,충무로3가,59-12,중구 충무로3가,40,531,57,0,충무로,명동,시청,53.4,140.4,87.6,1920.455850567762,1371.750209077029,1958.9707877379294,96.25739919393371
MA010120220812789946,라이트하우스,M1,과학·기술,M113,사진 촬영,M11301,사진촬영업,M73302,상업용 사진 촬영업,11650,서초구,11650600,방배1동,1165010100,방배동,1165010100109240005,서울특별시 서초구 방배동 924-5,116504163632,서울특별시 서초구 효령로31길,서울특별시 서초구 효령로31길 58,137843,6683,126.995493972066,37.4836699254377,서울특별시,서초구,방배동,924-5,서초구 방배동,55,54,19,0,사당,남부터미널,교대역,44.3,39.0,41.0,10364.359801288772,8654.885258597582,9789.831689816914,41.35681780305175
MA010120220813176323,하루필름,M1,과학·기술,M113,사진 촬영,M11301,사진촬영업,M73301,인물 사진 및 행사용 영상 촬영업,11215,광진구,11215710,화양동,1121510700,화양동,1121510700100090025,서울특별시 광진구 화양동 9-25,112154112316,서울특별시 광진구 아차산로29길,서울특별시 광진구 아차산로29길 22,143914,5018,127.068607436177,37.5417923267987,서울특별시,광진구,화양동,9-25,광진구 화양동,50,413,136,0,건대입구,군자,뚝섬,46.7,32.1,51.0,8900.280349017417,8485.74015800468,6140.497222287164,43.62186778282924
MA010120220813636976,포토이즘박스,M1,과학·기술,M113,사진 촬영,M11301,사진촬영업,M73301,인물 사진 및 행사용 영상 촬영업,11170,용산구,11170520,용산2가동,1117010200,용산동2가,1117010200100440018,서울특별시 용산구 용산동2가 44-18,111703102005,서울특별시 용산구 신흥로,서울특별시 용산구 신흥로 31,140842,4338,126.986947710577,37.5412731731987,서울특별시,용산구,용산동2가,44-18,용산구 용산동2가,23,368,8,0,이태원,명동,남대문,63.4,140.4,64.3,3938.0444187490557,2315.9833413943834,3877.646516783447,93.37711979368814
MA010120220813547524,이미지팩토리,M1,과학·기술,M113,사진 촬영,M11301,사진촬영업,M73301,인물 사진 및 행사용 영상 촬영업,11680,강남구,11680650,역삼2동,1168010100,역삼동,1168010100107700001,서울특별시 강남구 역삼동 770-1,116803122008,서울특별시 강남구 역삼로,서울특별시 강남구 역삼로 216,135928,6227,127.040819795228,37.4963910856364,서울특별시,강남구,역삼동,770-1,강남구 역삼동,26,239,56,0,강남대로,논현역,테헤란로,86.3,66.1,69.8,10455.072348049724,9127.698648316045,8741.05289790555,73.75089197592223
MA010120220813728493,포토이즘컬러드,M1,과학·기술,M113,사진 촬영,M11301,사진촬영업,M73301,인물 사진 및 행사용 영상 촬영업,11410,서대문구,11410585,신촌동,1141011600,창천동,1141011600100310045,서울특별시 서대문구 창천동 31-45,114103112008,서울특별시 서대문구 연세로,서울특별시 서대문구 연세로 19,120834,3789,126.936703262306,37.5573835496511,서울특별시,서대문구,창천동,31-45,서대문구 창천동,70,431,72,0,동교/연남,신촌/이대,공덕역,51.8,47.5,60.6,4148.753242248115,3425.3909522029953,6627.82974270566,52.51515277262701
MA010120220813906806,포토시그니처,M1,과학·기술,M113,사진 촬영,M11301,사진촬영업,S96999,그 외 기타 달리 분류되지 않은 개인 서비스업,11350,노원구,11350640,상계2동,1135010500,상계동,1135010500106160004,서울특별시 노원구 상계동 616-4,113504130088,서울특별시 노원구 노해로81길,서울특별시 노원구 노해로81길 16,139821,1695,127.062846686707,37.655629513668,서울특별시,노원구,상계동,616-4,노원구 상계동,55,227,92,1,상계역,수유,미아사거리,26.2,37.0,37.5,11620.948989440016,13130.553418144958,10485.099560431261,33.55651669838792
MA010120220814155346,미스터포토,M1,과학·기술,M113,사진 촬영,M11301,사진촬영업,M73301,인물 사진 및 행사용 영상 촬영업,11290,성북구,11290575,동선동,1129011600,동선동1가,1129011600100040003,서울특별시 성북구 동선동1가 4-3,112904121095,서울특별시 성북구 동소문로20다길,서울특별시 성북구 동소문로20다길 16,136051,2845,127.017618586711,37.5917385047609,서울특별시,성북구,동선동1가,4-3,성북구 동선동1가,75,211,52,0,성신여대,혜화동,미아사거리,53.3,51.4,37.5,3956.177829036782,5135.845515607674,2389.940502889381,46.519296117645986
MA0101202211A0089017,포토이즘박스,M1,과학·기술,M113,사진 촬영,M11301,사진촬영업,M73301,인물 사진 및 행사용 영상 촬영업,11110,종로구,11110600,가회동,1111014800,계동,1111014800101200001,서울특별시 종로구 계동 120-1,111104100014,서울특별시 종로구 계동길,서울특별시 종로구 계동길 60,110801,3057,126.986888255844,37.5799364164273,서울특별시,종로구,계동,120-1,종로구 계동,70,212,12,0,종로,광화문,시청,68.0,83.2,87.6,942.9580829939374,2438.8619652620077,2238.9043748928643,78.19868380608744
MA010120220800534759,코닥사진관,M1,과학·기술,M113,사진 촬영,M11301,사진촬영업,M73301,인물 사진 및 행사용 영상 촬영업,11500,강서구,11500570,화곡4동,1150010300,화곡동,1150010300108110010,서울특별시 강서구 화곡동 811-10,115004145156,서울특별시 강서구 곰달래로53길,서울특별시 강서구 곰달래로53길 32,157898,7740,126.859381892348,37.5333520758079,서울특별시,강서구,화곡동,811-10,강서구 화곡동,35,110,75,0,목동,화곡,오류동역,35.1,28.7,47.1,11454.879018602387,10664.389871842934,13929.465998615817,36.52822513594498
MA010120220800546758,아름다운사진,M1,과학·기술,M113,사진 촬영,M11301,사진촬영업,M73301,인물 사진 및 행사용 영상 촬영업,11500,강서구,11500603,가양1동,1150010400,가양동,1150010400114600000,서울특별시 강서구 가양동 1460,115003115013,서울특별시 강서구 허준로,서울특별시 강서구 허준로 23,157752,7524,126.843579219636,37.5712039571188,서울특별시,강서구,가양동,1460,강서구 가양동,29,31,7,0,화곡,목동,망원역,28.7,35.1,41.4,11839.078622689982,11706.734902735907,14675.48660411657,34.83172560373186
MA010120220801036051,스튜디오엠,M1,과학·기술,M113,사진 촬영,M11301,사진촬영업,M73301,인물 사진 및 행사용 영상 촬영업,11680,강남구,11680521,논현1동,1168010800,논현동,1168010800101580021,서울특별시 강남구 논현동 158-21,116804166781,서울특별시 강남구 학동로20길,서울특별시 강남구 학동로20길 63,135824,6115,127.026837646971,37.5097835354274,서울특별시,강남구,논현동,158-21,강남구 논현동,16,423,81,0,논현역,신사역,강남대로,66.1,71.4,86.3,8541.373808657534,7194.407870083934,6977.023503713841,74.90803345187882
MA010120220802371765,스튜디오엠,M1,과학·기술,M113,사진 촬영,M11301,사진촬영업,M73301,인물 사진 및 행사용 영상 촬영업,11680,강남구,11680510,신사동,1168010700,신사동,1168010700105090001,서울특별시 강남구 신사동 509-1,116804166024,서울특별시 강남구 강남대로158길,서울특별시 강남구 강남대로158길 12,135887,6034,127.019911317406,37.5187367893317,서울특별시,강남구,신사동,509-1,강남구 신사동,25,333,47,0,신사역,논현역,압구정,71.4,66.1,50.6,7374.333762422595,6039.400061874696,5886.536398917145,62.35120764215107
MA010120220802883333,팝콘스튜디오,M1,과학·기술,M113,사진 촬영,M11301,사진촬영업,M73303,사진 처리업,11620,관악구,11620585,낙성대동,1162010100,봉천동,1162010100108560001,서울특별시 관악구 봉천동 856-1,116203120001,서울특별시 관악구 관악로,서울특별시 관악구 관악로 168,151848,8788,126.952971158349,37.4802101237417,서울특별시,관악구,봉천동,856-1,관악구 봉천동,52,293,69,0,서울대입구역,신림역,사당,60.6,70.9,44.3,10843.48825891243,9071.435464840406,11270.07225692199,59.047272793556075
MA010120220802899272,인생네컷,M1,과학·기술,M113,사진 촬영,M11301,사진촬영업,S96999,그 외 기타 달리 분류되지 않은 개인 서비스업,11710,송파구,11710642,문정2동,1171010800,문정동,1171010800106340000,서울특별시 송파구 문정동 634,117103123017,서울특별시 송파구 충민로,서울특별시 송파구 충민로 66,138888,5838,127.124940952848,37.477608217824,서울특별시,송파구,문정동,634,송파구 문정동,20,83,15,0,가락시장,잠실/송파,잠실새내역,30.7,34.3,32.5,17001.375011110995,16077.937987031984,14544.773521912208,32.51745111313203
MA010120220804012466,봄스튜디오,M1,과학·기술,M113,사진 촬영,M11301,사진촬영업,M73301,인물 사진 및 행사용 영상 촬영업,11680,강남구,11680545,압구정동,1168010700,신사동,1168010700106260049,서울특별시 강남구 신사동 626-49,116804166157,서울특별시 강남구 논현로168길,서울특별시 강남구 논현로168길 49,135895,6024,127.032114115014,37.5233697121839,서울특별시,강남구,신사동,626-49,강남구 신사동,37,625,30,0,도산대로,논현역,압구정,45.5,66.1,50.6,7574.080085982699,6456.826964753484,5660.586148005399,54.23960514078499
MA0101202301A0000491,그믐달셀프스튜디오,M1,과학·기술,M113,사진 촬영,M11301,사진촬영업,M73301,인물 사진 및 행사용 영상 촬영업,11380,은평구,11380551,갈현1동,1138010400,갈현동,1138010400103980011,서울특별시 은평구 갈현동 398-11,113804133160,서울특별시 은평구 연서로29길,서울특별시 은평구 연서로29길 6,122809,3330,126.919563023721,37.6187955833889,서울특별시,은평구,갈현동,398-11,은평구 갈현동,51,199,79,0,연신내,불광역,동교/연남,42.4,38.8,51.8,6983.470244283209,8177.768857953596,9556.95893401292,44.07832020759528
MA0101202303A0000592,포토이즘박스,M1,과학·기술,M113,사진 촬영,M11301,사진촬영업,S96999,그 외 기타 달리 분류되지 않은 개인 서비스업,11620,관악구,11620585,낙성대동,1162010100,봉천동,1162010100116100003,서울특별시 관악구 봉천동 1610-3,116204160007,서울특별시 관악구 관악로14길,서울특별시 관악구 관악로14길 50,151848,8788,126.95525539029,37.4785633969058,서울특별시,관악구,봉천동,1610-3,관악구 봉천동,47,291,75,0,서울대입구역,신림역,사당,60.6,70.9,44.3,10984.760030305932,9208.85327054819,11346.955236648493,59.02838550236638
MA0101202303A0094947,포토이즘박스,M1,과학·기술,M113,사진 촬영,M11301,사진촬영업,S96999,그 외 기타 달리 분류되지 않은 개인 서비스업,11500,강서구,11500560,화곡3동,1150010300,화곡동,1150010300110670019,서울특별시 강서구 화곡동 1067-19,115003005069,서울특별시 강서구 화곡로,서울특별시 강서구 화곡로 135,157924,7712,126.836715133426,37.5408888707788,서울특별시,강서구,화곡동,1067-19,강서구 화곡동,36,153,82,0,화곡,목동,오류동역,28.7,35.1,47.1,13030.630442954905,12431.076844502033,15649.562165346397,36.63029083583642
MA0101202302A0106559,포토시그니처,M1,과학·기술,M113,사진 촬영,M11301,사진촬영업,S96999,그 외 기타 달리 분류되지 않은 개인 서비스업,11440,마포구,11440585,도화동,1144010400,도화동,1144010400105710000,서울특별시 마포구 도화동 571,114404139065,서울특별시 마포구 도화길,서울특별시 마포구 도화길 43,121815,4168,126.950232275901,37.5417814367637,서울특별시,마포구,도화동,571,마포구 도화동,48,211,51,0,공덕역,숙명여대,용산역,60.6,43.6,34.1,4490.614041890417,2999.918236436577,6183.387370588197,46.70650277523222
MA0106202304A0418116,더필름,M1,과학·기술,M113,사진 촬영,M11301,사진촬영업,M73301,인물 사진 및 행사용 영상 촬영업,11440,마포구,11440680,합정동,1144012200,합정동,1144012200104130002,서울특별시 마포구 합정동 413-2,114404139430,서울특별시 마포구 양화로6길,서울특별시 마포구 양화로6길 28,121883,4046,126.91559344711,37.5488929784701,서울특별시,마포구,합정동,413-2,마포구 합정동,29,804,66,0,홍대/합정,망원역,동교/연남,56.7,41.4,51.8,6236.7121843943905,5420.250346377287,8674.000736023896,49.684763674501966
MA0101202305A0025971,인생네컷,M1,과학·기술,M113,사진 촬영,M11301,사진촬영업,M73301,인물 사진 및 행사용 영상 촬영업,11110,종로구,11110615,종로1.2.3.4가동,1111015300,돈의동,1111015300100300000,서울특별시 종로구 돈의동 30,111104100198,서울특별시 종로구 수표로28길,서울특별시 종로구 수표로28길 28,110807,3133,126.990040754601,37.5728542191298,서울특별시,종로구,돈의동,30,종로구 돈의동,52,616,58,0,충무로,명동,광화문,53.4,140.4,83.2,1162.492285561013,1931.33713968226,1747.1411582214691,89.06787078410271
MA0101202306A0038211,포토이즘박스,M1,과학·기술,M113,사진 촬영,M11301,사진촬영업,S96999,그 외 기타 달리 분류되지 않은 개인 서비스업,11470,양천구,11470510,목1동,1147010200,목동,1147010200104060028,서울특별시 양천구 목동 406-28,114703114014,서울특별시 양천구 오목로,서울특별시 양천구 오목로 345,158716,7999,126.875814847793,37.5247695787904,서울특별시,양천구,목동,406-28,양천구 목동,34,107,32,0,목동,당산역,영등포역,35.1,37.1,34.1,10627.494472867158,9624.14636480496,12902.644332842972,35.504301233398174
MA0101202308A0065315,포토이즘박스,M1,과학·기술,M113,사진 촬영,M11301,사진촬영업,M73301,인물 사진 및 행사용 영상 촬영업,11590,동작구,11590605,흑석동,1159010500,흑석동,1159010500102230039,서울특별시 동작구 흑석동 223-39,115904157664,서울특별시 동작구 흑석로8길,서울특별시 동작구 흑석로8길 1,156861,6973,126.959529313829,37.5070833348386,서울특별시,동작구,흑석동,223-39,동작구 흑석동,42,74,13,0,노량진,용산역,서울대입구역,26.4,34.1,60.6,7805.217102583401,6034.731743797515,8379.694693333957,39.855437984547976
MA0101202310A0006668,비비드뮤지엄,M1,과학·기술,M113,사진 촬영,M11301,사진촬영업,M73301,인물 사진 및 행사용 영상 촬영업,11200,성동구,11200690,성수2가3동,1120011500,성수동2가,1120011500103160027,서울특별시 성동구 성수동2가 316-27,112004109413,서울특별시 성동구 연무장길,서울특별시 성동구 연무장길 43,133835,4782,127.054040466294,37.5429560224865,서울특별시,성동구,성수동2가,316-27,성동구 성수동2가,44,270,67,0,건대입구,청담,뚝섬,46.7,63.0,51.0,7692.795162952653,7206.9649664114795,5013.848719209391,53.50909386886278
MA010120220806425774,포토시그니처,M1,과학·기술,M113,사진 촬영,M11301,사진촬영업,S96999,그 외 기타 달리 분류되지 않은 개인 서비스업,11440,마포구,11440660,서교동,1144012000,서교동,1144012000103580057,서울특별시 마포구 서교동 358-57,114403113015,서울특별시 마포구 어울마당로,서울특별시 마포구 어울마당로 86,121838,4040,126.921831062565,37.5526804050574,서울특별시,마포구,서교동,358-57,마포구 서교동,43,1000,78,0,홍대/합정,동교/연남,망원역,56.7,51.8,41.4,5552.159103489183,4796.3621663770255,8029.5739507163835,50.581768902179206
MA010120220806993512,포토그레이,M1,과학·기술,M113,사진 촬영,M11301,사진촬영업,M73301,인물 사진 및 행사용 영상 촬영업,11470,양천구,11470550,목5동,1147010200,목동,1147010200109070013,서울특별시 양천구 목동 907-13,114703114001,서울특별시 양천구 목동동로,서울특별시 양천구 목동동로 387,158877,7983,126.87982646781,37.5356652213631,서울특별시,양천구,목동,907-13,양천구 목동,45,17,4,0,목동,당산역,영등포역,35.1,37.1,34.1,9716.785352786146,8860.826010981682,12132.981151832228,35.5090106961093
MA010120220807760381,인생네컷,M1,과학·기술,M113,사진 촬영,M11301,사진촬영업,M73301,인물 사진 및 행사용 영상 촬영업,11200,성동구,11200690,성수2가3동,1120011500,성수동2가,1120011500103160043,서울특별시 성동구 성수동2가 316-43,112004109413,서울특별시 성동구 연무장길,서울특별시 성동구 연무장길 39,133835,4782,127.053745253023,37.5430347516906,서울특별시,성동구,성수동2가,316-43,성동구 성수동2가,44,273,65,0,건대입구,청담,뚝섬,46.7,63.0,51.0,7665.694631398823,7179.496822934851,4988.021245718375,53.50903029013389
MA010120220808078278,뉴페이스스튜디오,M1,과학·기술,M113,사진 촬영,M11301,사진촬영업,M73301,인물 사진 및 행사용 영상 촬영업,11290,성북구,11290575,동선동,1129011600,동선동1가,1129011600100790000,서울특별시 성북구 동선동1가 79,112904121219,서울특별시 성북구 보문로34길,서울특별시 성북구 보문로34길 59,136051,2845,127.018566729651,37.5911066537136,서울특별시,성북구,동선동1가,79,성북구 동선동1가,74,200,52,0,성신여대,혜화동,미아사거리,53.3,51.4,37.5,4001.4382501032505,5149.783703065452,2349.542534193622,46.48931491370108
MA010120220809263205,포토이즘박스,M1,과학·기술,M113,사진 촬영,M11301,사진촬영업,S96999,그 외 기타 달리 분류되지 않은 개인 서비스업,11710,송파구,11710650,잠실본동,1171010100,잠실동,1171010100101890012,서울특별시 송파구 잠실동 189-12,117104169204,서울특별시 송파구 백제고분로7길,서울특별시 송파구 백제고분로7길 32,138861,5560,127.082363844232,37.5106965064093,서울특별시,송파구,잠실동,189-12,송파구 잠실동,39,253,80,0,잠실새내역,잠실/송파,뚝섬,32.5,34.3,51.0,11763.394582971969,10927.261271934996,9287.270582725623,39.656003868897464
MA010120220809797930,하루필름,M1,과학·기술,M113,사진 촬영,M11301,사진촬영업,S96999,그 외 기타 달리 분류되지 않은 개인 서비스업,11680,강남구,11680640,역삼1동,1168010100,역삼동,1168010100108170010,서울특별시 강남구 역삼동 817-10,116804166722,서울특별시 강남구 테헤란로1길,서울특별시 강남구 테헤란로1길 26,135931,6129,127.027643031678,37.5000137305439,서울특별시,강남구,역삼동,817-10,강남구 역삼동,32,535,85,0,강남대로,교대역,논현역,86.3,41.0,66.1,9522.794756976042,8103.88918422513,8052.67264376794,63.865098154748964
MA010120220809774341,미스터포토,M1,과학·기술,M113,사진 촬영,M11301,사진촬영업,M73301,인물 사진 및 행사용 영상 촬영업,11110,종로구,11110540,삼청동,1111014300,화동,1111014300101000000,서울특별시 종로구 화동 100,111104100111,서울특별시 종로구 북촌로5가길,서울특별시 종로구 북촌로5가길 12,110230,3053,126.982175701865,37.5801391566376,서울특별시,종로구,화동,100,종로구 화동,57,163,13,0,종로,광화문,시청,68.0,83.2,87.6,624.4936122527378,2317.6797465947125,2628.350658352013,77.61398159454043
MA010120220809731940,사진관,M1,과학·기술,M113,사진 촬영,M11301,사진촬영업,M73303,사진 처리업,11410,서대문구,11410585,신촌동,1141011600,창천동,1141011600100520030,서울특별시 서대문구 창천동 52-30,114104136230,서울특별시 서대문구 연세로11길,서울특별시 서대문구 연세로11길 17,120834,3788,126.935710547219,37.558744185118,서울특별시,서대문구,창천동,52-30,서대문구 창천동,58,559,76,0,동교/연남,신촌/이대,홍대/합정,51.8,47.5,56.7,4153.547493016031,3503.6160729803623,6680.400193012267,51.48384190895601
MA010120220809921489,사진촬영업,M1,과학·기술,M113,사진 촬영,M11301,사진촬영업,M73301,인물 사진 및 행사용 영상 촬영업,11350,노원구,11350595,공릉1동,1135010300,공릉동,1135010300106450002,서울특별시 노원구 공릉동 645-2,113504130005,서울특별시 노원구 공릉로26길,서울특별시 노원구 공릉로26길 20,139808,1803,127.079150926101,37.6201669268574,서울특별시,노원구,공릉동,645-2,노원구 공릉동,39,150,73,0,상봉역,경희대,상계역,46.5,46.7,26.2,10233.678666579459,11344.38611994675,8198.57880220142,39.20656106054285
MA010120220810242932,아더스튜디오,M1,과학·기술,M113,사진 촬영,M11301,사진촬영업,M73301,인물 사진 및 행사용 영상 촬영업,11680,강남구,11680531,논현2동,1168010800,논현동,1168010800100610012,서울특별시 강남구 논현동 61-12,116804166273,서울특별시 강남구 도산대로34길,서울특별시 강남구 도산대로34길 5,135816,6047,127.030857647655,37.5199264007899,서울특별시,강남구,논현동,61-12,강남구 논현동,27,608,44,0,논현역,도산대로,신사역,66.1,45.5,71.4,7804.715285170998,6621.279109916247,5984.481459981938,61.014384061147986
MA010120220810966128,포토시그니처,M1,과학·기술,M113,사진 촬영,M11301,사진촬영업,S96999,그 외 기타 달리 분류되지 않은 개인 서비스업,11620,관악구,11620585,낙성대동,1162010100,봉천동,1162010100116040022,서울특별시 관악구 봉천동 1604-22,116204160007,서울특별시 관악구 관악로14길,서울특별시 관악구 관악로14길 38,151835,8788,126.954653595884,37.478747295099,서울특별시,관악구,봉천동,1604-22,관악구 봉천동,46,292,72,0,서울대입구역,신림역,사당,60.6,70.9,44.3,10974.328154832754,9199.250842951042,11351.174893857258,59.03176164670098
MA010120220811483055,포토이즘,M1,과학·기술,M113,사진 촬영,M11301,사진촬영업,M73301,인물 사진 및 행사용 영상 촬영업,11380,은평구,11380552,갈현2동,1138010400,갈현동,1138010400104520031,서울특별시 은평구 갈현동 452-31,113804133160,서울특별시 은평구 연서로29길,서울특별시 은평구 연서로29길 23,122959,3331,126.917673905066,37.6193999807765,서울특별시,은평구,갈현동,452-31,은평구 갈현동,44,201,79,0,연신내,불광역,동교/연남,42.4,38.8,51.8,7151.58835473079,8332.316806153081,9733.083610699678,44.080690153066115
MA010120220811800776,우리동네사진관,M1,과학·기술,M113,사진 촬영,M11301,사진촬영업,M73301,인물 사진 및 행사용 영상 촬영업,11215,광진구,11215710,화양동,1121510700,화양동,1121510700100070003,서울특별시 광진구 화양동 7-3,112153000002,서울특별시 광진구 아차산로,서울특별시 광진구 아차산로 229,143717,5018,127.06899348461,37.5407771828983,서울특별시,광진구,화양동,7-3,광진구 화양동,49,421,138,0,건대입구,군자,뚝섬,46.7,32.1,51.0,8979.598478450653,8546.33055351024,6229.702261645718,43.61243111675472
MA010120220811754971,포토이즘박스,M1,과학·기술,M113,사진 촬영,M11301,사진촬영업,S96999,그 외 기타 달리 분류되지 않은 개인 서비스업,11470,양천구,11470550,목5동,1147010200,목동,1147010200109070005,서울특별시 양천구 목동 907-5,114703114003,서울특별시 양천구 목동서로,서울특별시 양천구 목동서로 65,158729,7983,126.878710893053,37.5361141632682,서울특별시,양천구,목동,907-5,양천구 목동,50,21,5,0,목동,당산역,영등포역,35.1,37.1,34.1,9781.769344113969,8939.861407179482,12210.269550116009,35.50835588487939
MA010120220812348092,아토스튜디오,M1,과학·기술,M113,사진 촬영,M11301,사진촬영업,M73301,인물 사진 및 행사용 영상 촬영업,11440,마포구,11440660,서교동,1144012000,서교동,1144012000103750025,서울특별시 마포구 서교동 375-25,114404139421,서울특별시 마포구 양화로15안길,서울특별시 마포구 양화로15안길 19,121894,4031,126.918519767407,37.5539205858196,서울특별시,마포구,서교동,375-25,마포구 서교동,55,1027,89,0,홍대/합정,망원역,동교/연남,56.7,41.4,51.8,5752.8929895502715,5064.834087271745,8279.849064995835,49.69105252616888
MA010120220813111746,인생네컷,M1,과학·기술,M113,사진 촬영,M11301,사진촬영업,M73301,인물 사진 및 행사용 영상 촬영업,11200,성동구,11200550,사근동,1120010700,행당동,1120010700100060002,서울특별시 성동구 행당동 6-2,112003103002,서울특별시 성동구 마조로,서울특별시 성동구 마조로 25,133817,4760,127.04089869257,37.5600330001779,서울특별시,성동구,행당동,6-2,성동구 행당동,68,181,49,0,왕십리,압구정,동대문,45.0,50.6,48.0,5875.5700743147245,5792.961156978802,3019.6766659091923,47.887315322357594
MA010120220813290945,포토시그니처,M1,과학·기술,M113,사진 촬영,M11301,사진촬영업,M73303,사진 처리업,11560,영등포구,11560605,문래동,1156012000,문래동2가,1156012000100440015,서울특별시 영등포구 문래동2가 44-15,115604154054,서울특별시 영등포구 경인로79길,서울특별시 영등포구 경인로79길 16,150092,7290,126.893778127337,37.5134148783471,서울특별시,영등포구,문래동2가,44-15,영등포구 문래동2가,44,219,26,0,영등포역,당산역,목동,34.1,37.1,35.1,10141.905463415933,8869.364787786166,12083.61458963455,35.47784447263527
MA010120220813996993,팝콘스튜디오,M1,과학·기술,M113,사진 촬영,M11301,사진촬영업,M73301,인물 사진 및 행사용 영상 촬영업,11410,서대문구,11410585,신촌동,1141011600,창천동,1141011600100330019,서울특별시 서대문구 창천동 33-19,114103112008,서울특별시 서대문구 연세로,서울특별시 서대문구 연세로 29-1,120834,3788,126.936735086995,37.5583299279034,서울특별시,서대문구,창천동,33-19,서대문구 창천동,65,441,72,0,동교/연남,신촌/이대,공덕역,51.8,47.5,60.6,4095.1264143717763,3415.3290980072334,6601.625072065465,52.512013263990525
MA0101202211A0012131,와이제이사진관,M1,과학·기술,M113,사진 촬영,M11301,사진촬영업,M73301,인물 사진 및 행사용 영상 촬영업,11470,양천구,11470650,신정4동,1147010100,신정동,1147010100109000021,서울특별시 양천구 신정동 900-21,114703114002,서울특별시 양천구 목동로,서울특별시 양천구 목동로 213,158857,7938,126.86379385874,37.5274297371354,서울특별시,양천구,신정동,900-21,양천구 신정동,48,153,91,0,목동,화곡,오류동역,35.1,28.7,47.1,11396.717605669524,10498.378393529058,13776.24805071691,36.52459128603749
MA010120220800040001,미스터포토,M1,과학·기술,M113,사진 촬영,M11301,사진촬영업,M73301,인물 사진 및 행사용 영상 촬영업,11110,종로구,11110650,혜화동,1111017300,명륜3가,1111017300101540003,서울특별시 종로구 명륜3가 154-3,111103005008,서울특별시 종로구 창경궁로,서울특별시 종로구 창경궁로 235,110812,3073,126.998350485629,37.5829626188737,서울특별시,종로구,명륜3가,154-3,종로구 명륜3가,71,156,24,0,혜화동,동대문,을지로,51.4,48.0,57.3,2002.5286065514365,3262.0858817410926,1650.7405138705542,52.74773344720991
MA010120220800295877,더스튜디오,M1,과학·기술,M113,사진 촬영,M11301,사진촬영업,M73301,인물 사진 및 행사용 영상 촬영업,11290,성북구,11290705,종암동,1129013500,종암동,1129013500100100101,서울특별시 성북구 종암동 10-101,112903005036,서울특별시 성북구 종암로,서울특별시 성북구 종암로 82-15,136858,2800,127.035917058637,37.5978993335141,서울특별시,성북구,종암동,10-101,성북구 종암동,29,50,41,0,청량리,미아사거리,성신여대,40.6,37.5,53.3,5708.812221031337,6808.144875632426,3765.2690512746008,44.579667829386175
MA010120220800343509,매직포토,M1,과학·기술,M113,사진 촬영,M11301,사진촬영업,M73301,인물 사진 및 행사용 영상 촬영업,11560,영등포구,11560535,영등포동,1156010400,영등포동3가,1156010400100080001,서울특별시 영등포구 영등포동3가 8-1,115604154817,서울특별시 영등포구 영중로8길,서울특별시 영등포구 영중로8길 6,150030,7302,126.906160022479,37.5183507803793,서울특별시,영등포구,영등포동3가,8-1,영등포구 영등포동3가,51,227,87,0,영등포역,당산역,홍대/합정,34.1,37.1,56.7,8975.762067339989,7663.048095395,10865.742308462084,42.01799145362099
MA010120220800564686,한양스튜디오,M1,과학·기술,M113,사진 촬영,M11301,사진촬영업,M73301,인물 사진 및 행사용 영상 촬영업,11410,서대문구,11410660,홍은1동,1141011800,홍은동,1141011800100090178,서울특별시 서대문구 홍은동 9-178,114104136420,서울특별시 서대문구 포방터길,서울특별시 서대문구 포방터길 42-2,120841,3607,126.949130361804,37.5984830154015,서울특별시,서대문구,홍은동,9-178,서대문구 홍은동,34,39,7,0,불광역,종로,연신내,38.8,68.0,42.4,3538.655923762854,4860.00733732267,6150.347910973115,49.562040664165906
MA010120220800655989,사진관,M1,과학·기술,M113,사진 촬영,M11301,사진촬영업,M73301,인물 사진 및 행사용 영상 촬영업,11410,서대문구,11410700,남가좌2동,1141012000,남가좌동,1141012000103240030,서울특별시 서대문구 남가좌동 324-30,114103112003,서울특별시 서대문구 거북골로,서울특별시 서대문구 거북골로 35,120806,3665,126.923903322807,37.5793519984021,서울특별시,서대문구,남가좌동,324-30,서대문구 남가좌동,53,74,25,0,동교/연남,망원역,신촌/이대,51.8,41.4,47.5,4746.520844654675,5026.601201273083,7633.630823858059,46.89448995376806
MA010120220800726268,아름다운사진,M1,과학·기술,M113,사진 촬영,M11301,사진촬영업,M73301,인물 사진 및 행사용 영상 촬영업,11530,구로구,11530750,개봉2동,1153010700,개봉동,1153010700104030136,서울특별시 구로구 개봉동 403-136,115303116001,서울특별시 구로구 개봉로,서울특별시 구로구 개봉로 52-2,152092,8332,126.85628242363,37.490315451797,서울특별시,구로구,개봉동,403-136,구로구 개봉동,27,63,31,0,오류동역,목동,독산/시흥,47.1,35.1,31.2,14319.326274303907,13058.65627634603,16259.619869461105,37.907729666756595
MA010120220800715555,여백스튜디오,M1,과학·기술,M113,사진 촬영,M11301,사진촬영업,M73301,인물 사진 및 행사용 영상 촬영업,11530,구로구,11530530,구로2동,1153010200,구로동,1153010200104370001,서울특별시 구로구 구로동 437-1,115303000023,서울특별시 구로구 가마산로,서울특별시 구로구 가마산로 229,152855,8284,126.886348529795,37.4942429318268,서울특별시,구로구,구로동,437-1,구로구 구로동,30,222,111,0,독산/시흥,영등포역,목동,31.2,34.1,35.1,12127.613152343136,10728.486334989459,13846.486392959489,33.440491681136365
MA010120220800645246,하루필름,M1,과학·기술,M113,사진 촬영,M11301,사진촬영업,S96999,그 외 기타 달리 분류되지 않은 개인 서비스업,11380,은평구,11380551,갈현1동,1138010400,갈현동,1138010400103990023,서울특별시 은평구 갈현동 399-23,113804133160,서울특별시 은평구 연서로29길,서울특별시 은평구 연서로29길 14,122809,3330,126.918731271404,37.6191303556794,서울특별시,은평구,갈현동,399-23,은평구 갈현동,47,199,79,0,연신내,불광역,동교/연남,42.4,38.8,51.8,7062.587896250373,8251.748625997638,9638.693199875252,44.079758977098386
MA010120220800842149,키다리아저씨사진관,M1,과학·기술,M113,사진 촬영,M11301,사진촬영업,M73301,인물 사진 및 행사용 영상 촬영업,11440,마포구,11440660,서교동,1144012000,서교동,1144012000103950022,서울특별시 마포구 서교동 395-22,114404139096,서울특별시 마포구 독막로7길,서울특별시 마포구 독막로7길 47,121840,4043,126.919630172134,37.5499121167538,서울특별시,마포구,서교동,395-22,마포구 서교동,39,854,69,0,홍대/합정,망원역,동교/연남,56.7,41.4,51.8,5870.07019325369,5047.246715451103,8299.844841407965,49.66736541020708
MA010120220802285209,하루필름,M1,과학·기술,M113,사진 촬영,M11301,사진촬영업,S96999,그 외 기타 달리 분류되지 않은 개인 서비스업,11350,노원구,11350640,상계2동,1135010500,상계동,1135010500105980002,서울특별시 노원구 상계동 598-2,113503110003,서울특별시 노원구 상계로,서울특별시 노원구 상계로 70,139821,1695,127.062751387158,37.6559981804444,서울특별시,노원구,상계동,598-2,노원구 상계동,55,226,91,0,상계역,수유,미아사거리,26.2,37.0,37.5,11646.667540281192,13158.709047172466,10517.952898324476,33.556025942916854
MA010120220803072770,한양스튜디오,M1,과학·기술,M113,사진 촬영,M11301,사진촬영업,M73301,인물 사진 및 행사용 영상 촬영업,11140,중구,11140580,장충동,1114014400,장충동2가,1114014400100460001,서울특별시 중구 장충동2가 46-1,111404103363,서울특별시 중구 퇴계로56길,서울특별시 중구 퇴계로56길 58-4,100855,4616,127.005203620235,37.561440605643,서울특별시,중구,장충동2가,46-1,중구 장충동2가,48,247,55,0,을지로,동대문,충무로,57.3,48.0,53.4,2931.784747278159,2644.0853404736486,1148.3248864783156,52.86148258899932
MA010120220803230817,인생네컷,M1,과학·기술,M113,사진 촬영,M11301,사진촬영업,M73301,인물 사진 및 행사용 영상 촬영업,11410,서대문구,11410700,남가좌2동,1141012000,남가좌동,1141012000103240019,서울특별시 서대문구 남가좌동 324-19,114103112003,서울특별시 서대문구 거북골로,서울특별시 서대문구 거북골로 25-1,120806,3665,126.924586844693,37.5798447868258,서울특별시,서대문구,남가좌동,324-19,서대문구 남가좌동,57,68,22,0,동교/연남,망원역,신촌/이대,51.8,41.4,47.5,4691.055062584784,4995.96857299608,7580.4310493611765,46.89836104145525
MA010120220803367048,포토그레이,M1,과학·기술,M113,사진 촬영,M11301,사진촬영업,M73301,인물 사진 및 행사용 영상 촬영업,11590,동작구,11590605,흑석동,1159010500,흑석동,1159010500101900025,서울특별시 동작구 흑석동 190-25,115903119010,서울특별시 동작구 흑석로,서울특별시 동작구 흑석로 83-2,156861,6910,126.9589048055,37.5072580418984,서울특별시,동작구,흑석동,190-25,동작구 흑석동,45,77,13,0,노량진,용산역,서울대입구역,26.4,34.1,60.6,7797.655306512466,6028.925480985526,8392.639191674538,39.84633905079876
MA010120220803755907,우리동네사진관,M1,과학·기술,M113,사진 촬영,M11301,사진촬영업,M73301,인물 사진 및 행사용 영상 촬영업,11650,서초구,11650531,서초4동,1165010800,서초동,1165010800113170003,서울특별시 서초구 서초동 1317-3,116504163028,서울특별시 서초구 강남대로61길,서울특별시 서초구 강남대로61길 7,137856,6615,127.025925491814,37.4990264412028,서울특별시,서초구,서초동,1317-3,서초구 서초동,34,487,77,0,강남대로,교대역,논현역,86.3,41.0,66.1,9550.885444345713,8109.441899794968,8131.997915560292,63.85585785892018
MA010120220804023571,스튜디오밥,M1,과학·기술,M113,사진 촬영,M11301,사진촬영업,M73302,상업용 사진 촬영업,11650,서초구,11650540,잠원동,1165010600,잠원동,1165010600100140017,서울특별시 서초구 잠원동 14-17,116503121002,서울특별시 서초구 나루터로,서울특별시 서초구 나루터로 73,137902,6525,127.01779044609,37.5157006478671,서울특별시,서초구,잠원동,14-17,서초구 잠원동,17,318,58,1,신사역,논현역,압구정,71.4,66.1,50.6,7576.477667481451,6183.173948285835,6195.33122466161,62.39995866674977
MA010120220804247154,한양스튜디오,M1,과학·기술,M113,사진 촬영,M11301,사진촬영업,M73303,사진 처리업,11710,송파구,11710562,방이2동,1171011100,방이동,1171011100101110010,서울특별시 송파구 방이동 111-10,117104169380,서울특별시 송파구 오금로19길,서울특별시 송파구 오금로19길 17,138830,5641,127.113926641524,37.5112798957276,서울특별시,송파구,방이동,111-10,송파구 방이동,30,259,89,0,잠실/송파,가락시장,잠실새내역,34.3,30.7,32.5,14033.49447347001,13388.807022708706,11357.582768141938,32.48503815272551
MA010120220804204434,하루필름,M1,과학·기술,M113,사진 촬영,M11301,사진촬영업,S96999,그 외 기타 달리 분류되지 않은 개인 서비스업,11680,강남구,11680640,역삼1동,1168010100,역삼동,1168010100106170004,서울특별시 강남구 역삼동 617-4,116804166003,서울특별시 강남구 강남대로102길,서울특별시 강남구 강남대로102길 31,135907,6124,127.027727702677,37.503078013327,서울특별시,강남구,역삼동,617-4,강남구 역삼동,24,564,88,0,강남대로,논현역,교대역,86.3,66.1,41.0,9226.744108354633,7831.352322151961,7721.060603965364,63.79969012384979
MA010120220804368696,수상한사진관,M1,과학·기술,M113,사진 촬영,M11301,사진촬영업,M73301,인물 사진 및 행사용 영상 촬영업,11350,노원구,11350640,상계2동,1135010500,상계동,1135010500106020010,서울특별시 노원구 상계동 602-10,113504130277,서울특별시 노원구 상계로1길,서울특별시 노원구 상계로1길 14-33,139821,1693,127.062080185619,37.6571011171705,서울특별시,노원구,상계동,602-10,노원구 상계동,58,234,93,0,상계역,수유,미아사거리,26.2,37.0,37.5,11702.372100378021,13223.596011374346,10601.70056619314,33.55409110570421
MA010120220804453971,엘스튜디오,M1,과학·기술,M113,사진 촬영,M11301,사진촬영업,M73301,인물 사진 및 행사용 영상 촬영업,11680,강남구,11680640,역삼1동,1168010100,역삼동,1168010100107050025,서울특별시 강남구 역삼동 705-25,116803122006,서울특별시 강남구 선릉로,서울특별시 강남구 선릉로 513,135922,6150,127.048284129509,37.5052727963886,서울특별시,강남구,역삼동,705-25,강남구 역삼동,43,294,62,0,테헤란로,논현역,청담,69.8,66.1,63.0,10034.534831734929,8856.709170381424,8067.400596634885,66.1752328203397
MA010120220804371189,뉴페이스스튜디오,M1,과학·기술,M113,사진 촬영,M11301,사진촬영업,M73301,인물 사진 및 행사용 영상 촬영업,11350,노원구,11350720,상계10동,1135010500,상계동,1135010500106930000,서울특별시 노원구 상계동 693,113503000001,서울특별시 노원구 동일로,서울특별시 노원구 동일로 1426,139827,1694,127.060530750824,37.655944474372,서울특별시,노원구,상계동,693,노원구 상계동,54,219,93,0,상계역,수유,미아사거리,26.2,37.0,37.5,11516.290873180134,13039.79047912556,10426.739540721786,33.55315841630335
MA010120220805369637,인생네컷,M1,과학·기술,M113,사진 촬영,M11301,사진촬영업,M73301,인물 사진 및 행사용 영상 촬영업,11500,강서구,11500560,화곡3동,1150010300,화곡동,1150010300110650001,서울특별시 강서구 화곡동 1065-1,115004145505,서울특별시 강서구 화곡로25길,서울특별시 강서구 화곡로25길 2,157924,7714,126.838484138521,37.5413748231096,서울특별시,강서구,화곡동,1065-1,강서구 화곡동,35,142,81,0,화곡,목동,오류동역,28.7,35.1,47.1,12865.31625003882,12267.841460292335,15485.285241585,36.62612794363786
MA010120220805421676,하루필름,M1,과학·기술,M113,사진 촬영,M11301,사진촬영업,S96999,그 외 기타 달리 분류되지 않은 개인 서비스업,11200,성동구,11200690,성수2가3동,1120011500,성수동2가,1120011500103020036,서울특별시 성동구 성수동2가 302-36,112004109413,서울특별시 성동구 연무장길,서울특별시 성동구 연무장길 17,133835,4782,127.05139369846,37.5437547451364,서울특별시,성동구,성수동2가,302-36,성동구 성수동2가,38,267,61,0,건대입구,청담,뚝섬,46.7,63.0,51.0,7444.9758576629865,6958.031570650295,4776.3917169877595,53.50785725950477
MA0101202209A0043199,포토시그니처,M1,과학·기술,M113,사진 촬영,M11301,사진촬영업,M73301,인물 사진 및 행사용 영상 촬영업,11215,광진구,11215850,구의1동,1121510300,구의동,1121510300102520035,서울특별시 광진구 구의동 252-35,112154112421,서울특별시 광진구 자양로18길,서울특별시 광진구 자양로18길 15,143826,5043,127.084273711972,37.5376799075177,서울특별시,광진구,구의동,252-35,광진구 구의동,69,166,97,0,건대입구,군자,뚝섬,46.7,32.1,51.0,10348.813548504928,9939.843086100724,7564.153853109147,43.57126545790351
MA0101202209A0076709,하루필름,M1,과학·기술,M113,사진 촬영,M11301,사진촬영업,M73301,인물 사진 및 행사용 영상 촬영업,11440,마포구,11440660,서교동,1144012000,서교동,1144012000103960032,서울특별시 마포구 서교동 396-32,114404139430,서울특별시 마포구 양화로6길,서울특별시 마포구 양화로6길 45,121840,4047,126.916792353131,37.5489400249656,서울특별시,마포구,서교동,396-32,마포구 서교동,36,784,60,0,홍대/합정,망원역,동교/연남,56.7,41.4,51.8,6141.5273123576235,5315.926314488096,8571.005011697891,49.67890885151898
MA0101202209A0082576,그믐달셀프스튜디오,M1,과학·기술,M113,사진 촬영,M11301,사진촬영업,M73301,인물 사진 및 행사용 영상 촬영업,11350,노원구,11350640,상계2동,1135010500,상계동,1135010500106160004,서울특별시 노원구 상계동 616-4,113504130088,서울특별시 노원구 노해로81길,서울특별시 노원구 노해로81길 16,139821,1695,127.062846686707,37.655629513668,서울특별시,노원구,상계동,616-4,노원구 상계동,55,227,92,1,상계역,수유,미아사거리,26.2,37.0,37.5,11620.948989440016,13130.553418144958,10485.099560431261,33.55651669838792
MA0101202307A0073104,포토이즘박스,M1,과학·기술,M113,사진 촬영,M11301,사진촬영업,S96999,그 외 기타 달리 분류되지 않은 개인 서비스업,11530,구로구,11530560,구로5동,1153010200,구로동,1153010200100260000,서울특별시 구로구 구로동 26,115303116007,서울특별시 구로구 새말로,서울특별시 구로구 새말로 102,152770,8289,126.891391372165,37.5057696736943,서울특별시,구로구,구로동,26,구로구 구로동,28,200,52,0,영등포역,독산/시흥,당산역,34.1,31.2,37.1,10886.949649126203,9552.343067609845,12727.344060800016,33.99200633068968
MA0101202308A0023025,픽닷,M1,과학·기술,M113,사진 촬영,M11301,사진촬영업,M73301,인물 사진 및 행사용 영상 촬영업,11410,서대문구,11410585,신촌동,1141011200,대현동,1141011200100560076,서울특별시 서대문구 대현동 56-76,114104136322,서울특별시 서대문구 이화여대길,서울특별시 서대문구 이화여대길 37,120808,3766,126.945570522112,37.5586254178815,서울특별시,서대문구,대현동,56-76,서대문구 대현동,105,274,59,0,신촌/이대,공덕역,동교/연남,47.5,60.6,51.8,3410.932946844734,2634.0435602968328,5833.8749982877325,53.69169214274255
MA010120220813084409,포토이즘박스,M1,과학·기술,M113,사진 촬영,M11301,사진촬영업,S96999,그 외 기타 달리 분류되지 않은 개인 서비스업,11350,노원구,11350640,상계2동,1135010500,상계동,1135010500106170000,서울특별시 노원구 상계동 617,113503110003,서울특별시 노원구 상계로,서울특별시 노원구 상계로 64,139821,1695,127.062255380977,37.6557870006375,서울특별시,노원구,상계동,617,노원구 상계동,53,226,92,0,상계역,수유,미아사거리,26.2,37.0,37.5,11600.495369014827,13114.060132700317,10477.50697615081,33.55559194381955
MA0101202305A0098834,포토이즘박스,M1,과학·기술,M113,사진 촬영,M11301,사진촬영업,S96999,그 외 기타 달리 분류되지 않은 개인 서비스업,11140,중구,11140605,을지로동,1114015500,을지로3가,1114015500103200003,서울특별시 중구 을지로3가 320-3,111404103316,서울특별시 중구 충무로5길,서울특별시 중구 충무로5길 19,100846,4550,126.9916146558,37.5652718896764,서울특별시,중구,을지로3가,320-3,중구 을지로3가,42,691,71,0,충무로,명동,을지로,53.4,140.4,57.3,1721.8898254322319,1553.74185587501,1725.8443681939611,84.6635545294439
MA010120220813333956,포토이즘박스,M1,과학·기술,M113,사진 촬영,M11301,사진촬영업,S96999,그 외 기타 달리 분류되지 않은 개인 서비스업,11560,영등포구,11560535,영등포동,1156010400,영등포동3가,1156010400100130011,서울특별시 영등포구 영등포동3가 13-11,115604154728,서울특별시 영등포구 영등포로50길,서울특별시 영등포구 영등포로50길 11,150030,7303,126.909390393585,37.5179121117548,서울특별시,영등포구,영등포동3가,13-11,영등포구 영등포동3가,47,204,91,0,영등포역,당산역,홍대/합정,34.1,37.1,56.7,8813.23730406283,7467.628826427082,10653.399452881105,42.014592723907924
MA0101202211A0009262,시안사진관,M1,과학·기술,M113,사진 촬영,M11301,사진촬영업,M73301,인물 사진 및 행사용 영상 촬영업,11215,광진구,11215847,자양4동,1121510500,자양동,1121510500100070009,서울특별시 광진구 자양동 7-9,112154112196,서울특별시 광진구 동일로20길,서울특별시 광진구 동일로20길 91,143841,5073,127.068652368184,37.5399995885681,서울특별시,광진구,자양동,7-9,광진구 자양동,48,422,138,0,건대입구,뚝섬,군자,46.7,51.0,32.1,8990.462297104168,8539.188903791268,6251.706260353328,42.697041315949996
MA010120220803948622,코닥사진관,M1,과학·기술,M113,사진 촬영,M11301,사진촬영업,M73301,인물 사진 및 행사용 영상 촬영업,11305,강북구,11305555,송천동,1130510100,미아동,1130510100100600005,서울특별시 강북구 미아동 60-5,113053005039,서울특별시 강북구 도봉로,서울특별시 강북구 도봉로 45,142724,1211,127.029434059876,37.6131368345599,서울특별시,강북구,미아동,60-5,강북구 미아동,56,162,50,0,미아사거리,성신여대,청량리,37.5,53.3,40.6,6172.910022989743,7592.132569700236,4975.501928253295,43.33805184055466
MA0101202305A0042528,포토시그니처,M1,과학·기술,M113,사진 촬영,M11301,사진촬영업,S96999,그 외 기타 달리 분류되지 않은 개인 서비스업,11140,중구,11140550,명동,1114012500,충무로2가,1114012500100650017,서울특별시 중구 충무로2가 65-17,111404103160,서울특별시 중구 명동8가길,서울특별시 중구 명동8가길 8,100861,4536,126.985473633658,37.5615340127774,서울특별시,중구,충무로2가,65-17,중구 충무로2가,36,557,71,0,명동,충무로,시청,140.4,53.4,87.6,1748.6713003258278,912.3487338062195,2391.6755598438767,90.85099934044017
MA010120220804016835,이음스튜디오,M1,과학·기술,M113,사진 촬영,M11301,사진촬영업,M73301,인물 사진 및 행사용 영상 촬영업,11680,강남구,11680565,청담동,1168010400,청담동,1168010400100180012,서울특별시 강남구 청담동 18-12,116804166293,서울특별시 강남구 도산대로66길,서울특별시 강남구 도산대로66길 30,135949,6064,127.043890326075,37.5216545179802,서울특별시,강남구,청담동,18-12,강남구 청담동,33,512,24,0,청담,도산대로,논현역,63.0,45.5,66.1,8411.81726220214,7402.886754222614,6269.1967293707985,58.29312858279374
MA010120220813736635,봄스튜디오,M1,과학·기술,M113,사진 촬영,M11301,사진촬영업,M73302,상업용 사진 촬영업,11305,강북구,11305645,우이동,1130510400,우이동,1130510400100560001,서울특별시 강북구 우이동 56-1,113054124201,서울특별시 강북구 삼양로155가길,서울특별시 강북구 삼양로155가길 30,142892,1005,127.012925243492,37.6572586744871,서울특별시,강북구,우이동,56-1,강북구 우이동,17,22,16,0,수유,미아사거리,상계역,37.0,37.5,26.2,9552.74124032607,11295.60064472754,9561.622130044865,33.455028513576245
MA010120220800030640,사진관,M1,과학·기술,M113,사진 촬영,M11301,사진촬영업,M73301,인물 사진 및 행사용 영상 촬영업,11110,종로구,11110600,가회동,1111014800,계동,1111014800101330006,서울특별시 종로구 계동 133-6,111104100014,서울특별시 종로구 계동길,서울특별시 종로구 계동길 84-3,110801,3057,126.986835981615,37.5812875277208,서울특별시,종로구,계동,133-6,종로구 계동,73,147,9,0,종로,광화문,시청,68.0,83.2,87.6,1018.2927946700266,2573.9883670790127,2312.2046643097287,78.24917966714489
MA010120220803731446,포토클럽,M1,과학·기술,M113,사진 촬영,M11301,사진촬영업,M73301,인물 사진 및 행사용 영상 촬영업,11215,광진구,11215870,구의3동,1121510300,구의동,1121510300105460004,서울특별시 광진구 구의동 546-4,112154112040,서울특별시 광진구 광나루로56길,서울특별시 광진구 광나루로56길 85,143721,5116,127.095680669092,37.53571340911,서울특별시,광진구,구의동,546-4,광진구 구의동,33,81,46,0,잠실새내역,군자,건대입구,32.5,32.1,46.7,11359.659008331502,10970.655232239884,8554.88548050643,37.504413881280726
MA0101202303A0018227,하루필름,M1,과학·기술,M113,사진 촬영,M11301,사진촬영업,S96999,그 외 기타 달리 분류되지 않은 개인 서비스업,11290,성북구,11290575,동선동,1129011600,동선동1가,1129011600100850097,서울특별시 성북구 동선동1가 85-97,112904121096,서울특별시 성북구 동소문로22길,서울특별시 성북구 동소문로22길 31,136051,2845,127.018106861751,37.5916344429016,서울특별시,성북구,동선동1가,85-97,성북구 동선동1가,76,207,52,0,성신여대,혜화동,미아사거리,53.3,51.4,37.5,3989.832474507627,5159.430256193009,2391.932393732686,46.51198096447486
MA0101202212C0017895,스튜디오,M1,과학·기술,M113,사진 촬영,M11301,사진촬영업,M73301,인물 사진 및 행사용 영상 촬영업,11440,마포구,11440710,연남동,1144012400,연남동,1144012400104870351,서울특별시 마포구 연남동 487-351,114404139110,서울특별시 마포구 동교로23길,서울특별시 마포구 동교로23길 98-7,121868,3986,126.917937309868,37.5597629882005,서울특별시,마포구,연남동,487-351,마포구 연남동,49,638,70,0,동교/연남,망원역,홍대/합정,51.8,41.4,56.7,5557.239393240684,5071.315844875702,8205.08374027982,49.38282931869186
MA0101202308A0026197,이음스튜디오,M1,과학·기술,M113,사진 촬영,M11301,사진촬영업,M73302,상업용 사진 촬영업,11740,강동구,11740640,성내1동,1174010800,성내동,1174010800105350000,서울특별시 강동구 성내동 535,117404172169,서울특별시 강동구 성내로5길,서울특별시 강동구 성내로5길 30,134850,5397,127.123988732227,37.5310610890775,서울특별시,강동구,성내동,535,강동구 성내동,28,203,55,0,천호,잠실/송파,가락시장,56.1,34.3,30.7,13872.277400148552,13523.291219845509,11035.6075262215,39.982365066978204
MA010120220806754291,나인포토,M1,과학·기술,M113,사진 촬영,M11301,사진촬영업,M73301,인물 사진 및 행사용 영상 촬영업,11590,동작구,11590510,노량진1동,1159010100,노량진동,1159010100101190144,서울특별시 동작구 노량진동 119-144,115903119002,서울특별시 동작구 만양로,서울특별시 동작구 만양로 90-1,156801,6913,126.944480481845,37.5115091167124,서울특별시,동작구,노량진동,119-144,동작구 노량진동,27,96,49,0,노량진,용산역,서울대입구역,26.4,34.1,60.6,7722.654178153082,6031.291716338184,8777.083955880182,39.65800323356742
MA0101202311A0094948,코즈닉스튜디오,M1,과학·기술,M113,사진 촬영,M11301,사진촬영업,M73301,인물 사진 및 행사용 영상 촬영업,11200,성동구,11200540,마장동,1120010500,마장동,1120010500105180014,서울특별시 성동구 마장동 518-14,112003005030,서울특별시 성동구 고산자로,서울특별시 성동구 고산자로 308,133814,4749,127.037016886441,37.567029561404,서울특별시,성동구,마장동,518-14,성동구 마장동,42,193,62,0,왕십리,청량리,동대문,45.0,40.6,48.0,5352.973371212488,5505.613749939049,2456.047447457995,44.93300866691072
MA0101202210A0039773,포토이즘컬러드,M1,과학·기술,M113,사진 촬영,M11301,사진촬영업,M73301,인물 사진 및 행사용 영상 촬영업,11230,동대문구,11230710,회기동,1123010800,회기동,1123010800100450057,서울특별시 동대문구 회기동 45-57,112303105020,서울특별시 동대문구 회기로,서울특별시 동대문구 회기로 161,130872,2452,127.054001040481,37.5908283177483,서울특별시,동대문구,회기동,45-57,동대문구 회기동,73,215,53,0,경희대,청량리,미아사거리,46.7,40.6,37.5,6959.051972672907,7746.862410713248,4481.357746426628,41.355808542606496
MA0101202301A0030431,시안사진관,M1,과학·기술,M113,사진 촬영,M11301,사진촬영업,M73301,인물 사진 및 행사용 영상 촬영업,11350,노원구,11350720,상계10동,1135010500,상계동,1135010500106930000,서울특별시 노원구 상계동 693,113503000001,서울특별시 노원구 동일로,서울특별시 노원구 동일로 1426,139827,1694,127.06053041027,37.6559715026737,서울특별시,노원구,상계동,693,노원구 상계동,54,219,93,0,상계역,수유,미아사거리,26.2,37.0,37.5,11518.584015016257,13042.222793184783,10429.434115676899,33.55313188988365
MA010120220808318898,포토그레이,M1,과학·기술,M113,사진 촬영,M11301,사진촬영업,S96999,그 외 기타 달리 분류되지 않은 개인 서비스업,11305,강북구,11305635,수유3동,1130510300,수유동,1130510300102240002,서울특별시 강북구 수유동 224-2,113054124141,서울특별시 강북구 도봉로87길,서울특별시 강북구 도봉로87길 31,142878,1072,127.024057029247,37.6388891432512,서울특별시,강북구,수유동,224-2,강북구 수유동,30,292,173,0,수유,미아사거리,성신여대,37.0,37.5,53.3,8107.6228060572685,9757.912195480467,7624.6629464511525,42.86645823644761
MA010120220804379541,사진촬영업,M1,과학·기술,M113,사진 촬영,M11301,사진촬영업,M73301,인물 사진 및 행사용 영상 촬영업,11350,노원구,11350595,공릉1동,1135010300,공릉동,1135010300106330004,서울특별시 노원구 공릉동 633-4,113503005050,서울특별시 노원구 공릉로,서울특별시 노원구 공릉로 105-1,139808,1849,127.077750866035,37.6197955766281,서울특별시,노원구,공릉동,633-4,노원구 공릉동,38,152,71,0,상봉역,경희대,상계역,46.5,46.7,26.2,10105.466639794715,11220.262871976882,8078.905802606623,39.20054822971097
MA0101202210A0093758,모노맨션,M1,과학·기술,M113,사진 촬영,M11301,사진촬영업,M73301,인물 사진 및 행사용 영상 촬영업,11680,강남구,11680545,압구정동,1168010700,신사동,1168010700106420028,서울특별시 강남구 신사동 642-28,116804166525,서울특별시 강남구 압구정로48길,서울특별시 강남구 압구정로48길 38,135896,6017,127.036855081837,37.5259494365355,서울특별시,강남구,신사동,642-28,강남구 신사동,41,522,24,0,도산대로,청담,압구정,45.5,63.0,50.6,7637.286527912646,6620.07297270391,5560.805027192774,53.16163625398708
MA010120220808144758,포토이즘컬러드,M1,과학·기술,M113,사진 촬영,M11301,사진촬영업,M73301,인물 사진 및 행사용 영상 촬영업,11680,강남구,11680640,역삼1동,1168010100,역삼동,1168010100106190003,서울특별시 강남구 역삼동 619-3,116804166003,서울특별시 강남구 강남대로102길,서울특별시 강남구 강남대로102길 16,135908,6128,127.027163577727,37.5021002299312,서울특별시,강남구,역삼동,619-3,강남구 역삼동,29,566,89,1,강남대로,교대역,논현역,86.3,41.0,66.1,9298.367187330385,7890.08865288857,7817.284714401785,63.8542372626621
MA010120220800011000,포토클럽,M1,과학·기술,M113,사진 촬영,M11301,사진촬영업,M73301,인물 사진 및 행사용 영상 촬영업,11170,용산구,11170530,남영동,1117010500,남영동,1117010500100180002,서울특별시 용산구 남영동 18-2,111702005005,서울특별시 용산구 한강대로,서울특별시 용산구 한강대로 298,140160,4352,126.972357480195,37.5448774241735,서울특별시,용산구,남영동,18-2,용산구 남영동,68,178,36,0,숙명여대,남대문,용산역,43.6,64.3,34.1,3477.297047475132,1696.6673119135328,4403.258038560085,49.550307100060024
MA0101202311A0018073,라이트하우스,M1,과학·기술,M113,사진 촬영,M11301,사진촬영업,M73301,인물 사진 및 행사용 영상 촬영업,11620,관악구,11620745,삼성동,1162010200,신림동,1162010200103060006,서울특별시 관악구 신림동 306-6,116204160759,서울특별시 관악구 호암로18가길,서울특별시 관악구 호암로18가길 1,151929,8821,126.932434093207,37.465420287636,서울특별시,관악구,신림동,306-6,관악구 신림동,36,86,23,0,신림역,서울대입구역,독산/시흥,70.9,60.6,31.2,12896.388425083212,11159.198479612915,13577.75446727074,54.588792608484795
MA0101202303A0093381,모노맨션,M1,과학·기술,M113,사진 촬영,M11301,사진촬영업,M73301,인물 사진 및 행사용 영상 촬영업,11740,강동구,11740610,천호2동,1174010900,천호동,1174010900104540064,서울특별시 강동구 천호동 454-64,117404172367,서울특별시 강동구 천호대로157길,서울특별시 강동구 천호대로157길 17,134874,5329,127.126955748927,37.5385978692864,서울특별시,강동구,천호동,454-64,강동구 천호동,27,238,64,0,천호,잠실/송파,잠실새내역,56.1,34.3,32.5,13843.628275470088,13606.953796791586,10972.44264025705,40.62979571802305
MA010120220808605966,포토이즘컬러드,M1,과학·기술,M113,사진 촬영,M11301,사진촬영업,M73301,인물 사진 및 행사용 영상 촬영업,11215,광진구,11215710,화양동,1121510700,화양동,1121510700100480023,서울특별시 광진구 화양동 48-23,112154112312,서울특별시 광진구 아차산로25길,서울특별시 광진구 아차산로25길 8,143917,5019,127.066729065932,37.5417865066894,서울특별시,광진구,화양동,48-23,광진구 화양동,42,453,142,0,건대입구,군자,뚝섬,46.7,32.1,51.0,8750.682476290494,8324.77235088092,6000.813224466653,43.624386101847584
MA0101202309A0071400,코즈닉스튜디오,M1,과학·기술,M113,사진 촬영,M11301,사진촬영업,M73301,인물 사진 및 행사용 영상 촬영업,11230,동대문구,11230545,제기동,1123010300,제기동,1123010300111150006,서울특별시 동대문구 제기동 1115-6,112304115259,서울특별시 동대문구 약령중앙로4길,서울특별시 동대문구 약령중앙로4길 8-1,130864,2570,127.037486543069,37.5797921830266,서울특별시,동대문구,제기동,1115-6,동대문구 제기동,41,174,50,0,청량리,왕십리,성신여대,40.6,45.0,53.3,5318.994947982942,5914.713298684487,2635.2831672486527,47.00518524877827
MA0101202305A0042078,그믐달셀프스튜디오,M1,과학·기술,M113,사진 촬영,M11301,사진촬영업,M73302,상업용 사진 촬영업,11215,광진구,11215760,중곡3동,1121510100,중곡동,1121510100101930057,서울특별시 광진구 중곡동 193-57,112153005027,서울특별시 광진구 면목로,서울특별시 광진구 면목로 142-1,143901,4908,127.081492480744,37.5660774490265,서울특별시,광진구,중곡동,193-57,광진구 중곡동,40,158,63,0,군자,건대입구,상봉역,32.1,46.7,46.5,9254.847857857156,9403.614576566337,6367.247311534637,42.02508211698272
MA0101202306A0090624,추억저장소,M1,과학·기술,M113,사진 촬영,M11301,사진촬영업,M73303,사진 처리업,11440,마포구,11440555,아현동,1144010200,공덕동,1144010200104230029,서울특별시 마포구 공덕동 423-29,114402113001,서울특별시 마포구 마포대로,서울특별시 마포구 마포대로 100,121861,4213,126.951348108955,37.5445215115783,서울특별시,마포구,공덕동,423-29,마포구 공덕동,51,212,53,0,공덕역,숙명여대,신촌/이대,60.6,43.6,47.5,4181.7522916381895,2726.8385668593273,5942.807104017616,50.38243259066156
MA010120220800537569,포토시그니처,M1,과학·기술,M113,사진 촬영,M11301,사진촬영업,S96999,그 외 기타 달리 분류되지 않은 개인 서비스업,11410,서대문구,11410585,신촌동,1141011600,창천동,1141011600100310036,서울특별시 서대문구 창천동 31-36,114103112008,서울특별시 서대문구 연세로,서울특별시 서대문구 연세로 24,120834,3776,126.937093972284,37.5577655044565,서울특별시,서대문구,창천동,31-36,서대문구 창천동,73,408,69,0,동교/연남,신촌/이대,공덕역,51.8,47.5,60.6,4097.781820816865,3387.64558774931,6584.537235582512,52.508523075825806
MA010120220808173722,하루필름,M1,과학·기술,M113,사진 촬영,M11301,사진촬영업,S96999,그 외 기타 달리 분류되지 않은 개인 서비스업,11620,관악구,11620645,서원동,1162010200,신림동,1162010200116400030,서울특별시 관악구 신림동 1640-30,116204160220,서울특별시 관악구 남부순환로176길,서울특별시 관악구 남부순환로176길 11,151930,8776,126.928559473785,37.4834422889381,서울특별시,관악구,신림동,1640-30,관악구 신림동,32,351,117,0,신림역,서울대입구역,독산/시흥,70.9,60.6,31.2,11139.400452293929,9447.56714008832,12091.250186868769,54.73359946159879
MA010120220800009705,스튜디오원,M1,과학·기술,M113,사진 촬영,M11301,사진촬영업,M73301,인물 사진 및 행사용 영상 촬영업,11110,종로구,11110550,부암동,1111018400,부암동,1111018400101860005,서울특별시 종로구 부암동 186-5,111104100294,서울특별시 종로구 자하문로41길,서울특별시 종로구 자하문로41길 7,110816,3021,126.961968538358,37.5971189316897,서울특별시,종로구,부암동,186-5,종로구 부암동,23,11,0,0,종로,광화문,시청,68.0,83.2,87.6,2719.8622905277593,4287.775874686962,5107.26253943929,78.57879101539974
MA010120220809771941,포토시그니처,M1,과학·기술,M113,사진 촬영,M11301,사진촬영업,M73301,인물 사진 및 행사용 영상 촬영업,11740,강동구,11740610,천호2동,1174010900,천호동,1174010900102870002,서울특별시 강동구 천호동 287-2,117403124003,서울특별시 강동구 상암로,서울특별시 강동구 상암로 42,134867,5318,127.127868959602,37.5495704553867,서울특별시,강동구,천호동,287-2,강동구 천호동,26,83,45,0,천호,잠실/송파,군자,56.1,34.3,32.1,13606.83635087151,13527.547792419204,10711.72418214018,40.492452865955514
MA010120220804598954,이음스튜디오,M1,과학·기술,M113,사진 촬영,M11301,사진촬영업,J59202,녹음시설 운영업,11650,서초구,11650652,양재2동,1165010200,양재동,1165010200103540010,서울특별시 서초구 양재동 354-10,116504163031,서울특별시 서초구 강남대로6길,서울특별시 서초구 강남대로6길 28-9,137898,6788,127.043139150916,37.4670534026507,서울특별시,서초구,양재동,354-10,서초구 양재동,14,54,33,0,남부터미널,강남대로,교대역,39.0,86.3,41.0,13407.431908576087,11929.227917610204,11925.320019847717,55.75853632881704
MA0101202310A0098321,픽닷,M1,과학·기술,M113,사진 촬영,M11301,사진촬영업,M73301,인물 사진 및 행사용 영상 촬영업,11260,중랑구,11260590,상봉2동,1126010200,상봉동,1126010200101040101,서울특별시 중랑구 상봉동 104-101,112604118287,서울특별시 중랑구 봉우재로33길,서울특별시 중랑구 봉우재로33길 31,131859,2154,127.087581512858,37.5939850369329,서울특별시,중랑구,상봉동,104-101,중랑구 상봉동,40,228,111,0,상봉역,경희대,청량리,46.5,46.7,40.6,9929.9592999036,10609.375889414743,7331.095956307794,44.387907331777825
MA010120220811796023,포토이즘박스,M1,과학·기술,M113,사진 촬영,M11301,사진촬영업,M73301,인물 사진 및 행사용 영상 촬영업,11215,광진구,11215710,화양동,1121510700,화양동,1121510700100480025,서울특별시 광진구 화양동 48-25,112154112316,서울특별시 광진구 아차산로29길,서울특별시 광진구 아차산로29길 7,143917,5019,127.06809289841,37.5413107099906,서울특별시,광진구,화양동,48-25,광진구 화양동,47,426,138,0,건대입구,군자,뚝섬,46.7,32.1,51.0,8882.19166139781,8454.551694949701,6130.72994557735,43.618273706575835
MA010120220808065118,포토시그니처,M1,과학·기술,M113,사진 촬영,M11301,사진촬영업,S96999,그 외 기타 달리 분류되지 않은 개인 서비스업,11680,강남구,11680640,역삼1동,1168010100,역삼동,1168010100108130008,서울특별시 강남구 역삼동 813-8,116804166346,서울특별시 강남구 봉은사로2길,서울특별시 강남구 봉은사로2길 35,135931,6123,127.02651465473,37.5024282740719,서울특별시,강남구,역삼동,813-8,강남구 역삼동,33,561,87,0,강남대로,교대역,논현역,86.3,41.0,66.1,9239.241428223482,7827.178618618792,7770.423757692413,63.84788155360188
MA010120220807201867,미스터포토,M1,과학·기술,M113,사진 촬영,M11301,사진촬영업,M73303,사진 처리업,11680,강남구,11680640,역삼1동,1168010100,역삼동,1168010100108270009,서울특별시 강남구 역삼동 827-9,116804166743,서울특별시 강남구 테헤란로4길,서울특별시 강남구 테헤란로4길 31,135935,6240,127.030550758828,37.4964243972138,서울특별시,강남구,역삼동,827-9,강남구 역삼동,34,441,75,0,강남대로,교대역,논현역,86.3,41.0,66.1,9995.147547458964,8577.776510193795,8495.63084975468,63.897523556263536
MA010120220800194063,수스튜디오,M1,과학·기술,M113,사진 촬영,M11301,사진촬영업,M73301,인물 사진 및 행사용 영상 촬영업,11440,마포구,11440700,망원2동,1144012300,망원동,1144012300104730005,서울특별시 마포구 망원동 473-5,114403113008,서울특별시 마포구 방울내로,서울특별시 마포구 방울내로 79,121826,3961,126.904058320539,37.56070720142,서울특별시,마포구,망원동,473-5,마포구 망원동,38,175,37,0,망원역,홍대/합정,동교/연남,41.4,56.7,51.8,6702.033420540715,6298.0120748060735,9404.988948387232,49.916789303641
MA0101202302A0082400,폴라스튜디오,M1,과학·기술,M113,사진 촬영,M11301,사진촬영업,S96999,그 외 기타 달리 분류되지 않은 개인 서비스업,11650,서초구,11650610,방배2동,1165010100,방배동,1165010100104510019,서울특별시 서초구 방배동 451-19,116504163158,서울특별시 서초구 방배천로2안길,서울특별시 서초구 방배천로2안길 51,137818,6692,126.983817032011,37.4792540169367,서울특별시,서초구,방배동,451-19,서초구 방배동,32,307,92,0,사당,서울대입구역,남부터미널,44.3,60.6,39.0,10745.911868400366,8990.852491013091,10452.55964911725,48.290321786644924
MA010120220802284972,수상한사진관,M1,과학·기술,M113,사진 촬영,M11301,사진촬영업,M73301,인물 사진 및 행사용 영상 촬영업,11440,마포구,11440660,서교동,1144012000,서교동,1144012000103580113,서울특별시 마포구 서교동 358-113,114403113015,서울특별시 마포구 어울마당로,서울특별시 마포구 어울마당로 96,121838,4040,126.922260448365,37.5535132814123,서울특별시,마포구,서교동,358-113,마포구 서교동,44,1034,75,0,홍대/합정,동교/연남,망원역,56.7,51.8,41.4,5475.940651168517,4744.084280020222,7969.65392827392,50.5907718876291
MA0101202303A0007487,픽닷,M1,과학·기술,M113,사진 촬영,M11301,사진촬영업,M73301,인물 사진 및 행사용 영상 촬영업,11440,마포구,11440660,서교동,1144012000,서교동,1144012000103940020,서울특별시 마포구 서교동 394-20,114404139430,서울특별시 마포구 양화로6길,서울특별시 마포구 양화로6길 21,121893,4044,126.915498616605,37.5491894504712,서울특별시,마포구,서교동,394-20,마포구 서교동,29,812,68,0,홍대/합정,망원역,동교/연남,56.7,41.4,51.8,6228.29367670923,5421.0370857900825,8672.713107951302,49.68625850926205
MA010120220805643247,추억저장소,M1,과학·기술,M113,사진 촬영,M11301,사진촬영업,M73301,인물 사진 및 행사용 영상 촬영업,11320,도봉구,11320690,방학1동,1132010600,방학동,1132010600106720027,서울특별시 도봉구 방학동 672-27,113203005048,서울특별시 도봉구 방학로,서울특별시 도봉구 방학로 135,132849,1389,127.037166217171,37.6626129317577,서울특별시,도봉구,방학동,672-27,도봉구 방학동,34,110,69,0,수유,상계역,미아사거리,37.0,26.2,37.5,10968.741352969078,12631.88300442855,10437.224738404424,33.7773503991004
MA010120220805436174,모션픽쳐,M1,과학·기술,M113,사진 촬영,M11301,사진촬영업,M73301,인물 사진 및 행사용 영상 촬영업,11200,성동구,11200650,성수1가1동,1120011400,성수동1가,1120011400106561222,서울특별시 성동구 성수동1가 656-1222,112004109156,서울특별시 성동구 뚝섬로1길,서울특별시 성동구 뚝섬로1길 25,133821,4778,127.046382168442,37.5436332843543,서울특별시,성동구,성수동1가,656-1222,성동구 성수동1가,35,222,55,1,청담,압구정,도산대로,63.0,50.6,45.5,7066.525352921539,6535.019283029632,4453.057711843845,52.452277768423095
MA010120220814126254,제이에스스튜디오,M1,과학·기술,M113,사진 촬영,M11301,사진촬영업,M73301,인물 사진 및 행사용 영상 촬영업,11290,성북구,11290575,동선동,1129011000,동소문동7가,1129011000100020026,서울특별시 성북구 동소문동7가 2-26,112904121088,서울특별시 성북구 동소문로13나길,서울특별시 성북구 동소문로13나길 96,136037,2830,127.01525745427,37.5956203323165,서울특별시,성북구,동소문동7가,2-26,성북구 동소문동7가,55,199,55,0,성신여대,혜화동,미아사거리,53.3,51.4,37.5,3988.8947975487185,5299.485791413746,2760.1561289287083,46.677635234785384
MA0101202212A0041441,사진촬영업,M1,과학·기술,M113,사진 촬영,M11301,사진촬영업,M73301,인물 사진 및 행사용 영상 촬영업,11440,마포구,11440680,합정동,1144012200,합정동,1144012200104330054,서울특별시 마포구 합정동 433-54,114403112014,서울특별시 마포구 동교로,서울특별시 마포구 동교로 40-9,121887,4021,126.907068011378,37.5522563381762,서울특별시,마포구,합정동,433-54,마포구 합정동,31,340,48,0,망원역,홍대/합정,당산역,41.4,56.7,37.1,6752.437118569401,6092.518591997913,9307.1926601303,45.699335280514546
MA010120220803082680,하루필름,M1,과학·기술,M113,사진 촬영,M11301,사진촬영업,M73301,인물 사진 및 행사용 영상 촬영업,11110,종로구,11110615,종로1.2.3.4가동,1111013300,익선동,1111013300101660041,서울특별시 종로구 익선동 166-41,111104100198,서울특별시 종로구 수표로28길,서울특별시 종로구 수표로28길 21-4,110340,3133,126.989799642901,37.5731044476391,서울특별시,종로구,익선동,166-41,종로구 익선동,56,606,58,0,충무로,명동,광화문,53.4,140.4,83.2,1134.1299775810646,1937.8591581739367,1771.5040179791201,88.94618773371937
MA010120220808425284,폴라스튜디오,M1,과학·기술,M113,사진 촬영,M11301,사진촬영업,L68112,비주거용 건물 임대업,11440,마포구,11440710,연남동,1144012400,연남동,1144012400105670034,서울특별시 마포구 연남동 567-34,114404139443,서울특별시 마포구 연남로1길,서울특별시 마포구 연남로1길 11,121869,3990,126.922372828921,37.5606415231271,서울특별시,마포구,연남동,567-34,마포구 연남동,40,658,50,0,동교/연남,홍대/합정,망원역,51.8,56.7,41.4,5154.983534141812,4679.908731602335,7802.91055484954,50.70039595854899
MA010120220804325519,여백스튜디오,M1,과학·기술,M113,사진 촬영,M11301,사진촬영업,M73301,인물 사진 및 행사용 영상 촬영업,11290,성북구,11290760,장위1동,1129013800,장위동,1129013800102330634,서울특별시 성북구 장위동 233-634,112903107013,서울특별시 성북구 장위로,서울특별시 성북구 장위로 64,136837,2744,127.043561263206,37.6138018144495,서울특별시,성북구,장위동,233-634,성북구 장위동,40,78,21,0,미아사거리,경희대,청량리,37.5,46.7,40.6,7192.205226806026,8485.149341128048,5599.483787717498,41.407613887804054
MA010120220802691670,사람사진으로쓰는이야기,M1,과학·기술,M113,사진 촬영,M11301,사진촬영업,M73301,인물 사진 및 행사용 영상 촬영업,11680,강남구,11680580,삼성1동,1168010500,삼성동,1168010500100850017,서울특별시 강남구 삼성동 85-17,116804166326,서울특별시 강남구 봉은사로105길,서울특별시 강남구 봉은사로105길 54-3,135871,6080,127.060746308894,37.5180594061953,서울특별시,강남구,삼성동,85-17,강남구 삼성동,26,81,14,0,테헤란로,뚝섬,청담,69.8,51.0,63.0,9769.025159289387,8867.347605782,7420.671988656236,61.167139953207794
MA0101202305A0057580,더필름,M1,과학·기술,M113,사진 촬영,M11301,사진촬영업,M73301,인물 사진 및 행사용 영상 촬영업,11650,서초구,11650531,서초4동,1165010800,서초동,1165010800113080010,서울특별시 서초구 서초동 1308-10,116504163435,서울특별시 서초구 서초대로77길,서울특별시 서초구 서초대로77길 37,137856,6612,127.025085764296,37.5009838132703,서울특별시,서초구,서초동,1308-10,서초구 서초동,33,541,84,1,강남대로,교대역,논현역,86.3,41.0,66.1,9323.456026613425,7887.464542886694,7905.145221015715,63.841939859715325
MA010120220802999282,수상한사진관,M1,과학·기술,M113,사진 촬영,M11301,사진촬영업,M73301,인물 사진 및 행사용 영상 촬영업,11380,은평구,11380552,갈현2동,1138010400,갈현동,1138010400104560036,서울특별시 은평구 갈현동 456-36,113803111006,서울특별시 은평구 연서로,서울특별시 은평구 연서로 219,122959,3331,126.919705844053,37.6183193454705,서울특별시,은평구,갈현동,456-36,은평구 갈현동,54,200,82,0,연신내,불광역,동교/연남,42.4,38.8,51.8,6938.313119144913,8128.016428047897,9517.297511097406,44.075572511725
MA0101202209A0082518,인생네컷,M1,과학·기술,M113,사진 촬영,M11301,사진촬영업,M73301,인물 사진 및 행사용 영상 촬영업,11530,구로구,11530540,구로3동,1153010200,구로동,1153010200111240023,서울특별시 구로구 구로동 1124-23,115304148337,서울특별시 구로구 디지털로32길,서울특별시 구로구 디지털로32길 87,152880,8391,126.900102601297,37.4832528727716,서울특별시,구로구,구로동,1124-23,구로구 구로동,39,233,110,0,독산/시흥,신림역,영등포역,31.2,70.9,34.1,12352.817209487863,10804.882362454073,13748.395449629792,46.14841801443198
MA010120220813796131,스튜디오밥,M1,과학·기술,M113,사진 촬영,M11301,사진촬영업,M73301,인물 사진 및 행사용 영상 촬영업,11440,마포구,11440680,합정동,1144012200,합정동,1144012200104120026,서울특별시 마포구 합정동 412-26,114404139430,서울특별시 마포구 양화로6길,서울특별시 마포구 양화로6길 50,121883,4047,126.916977570388,37.548653391377,서울특별시,마포구,합정동,412-26,마포구 합정동,36,779,60,0,홍대/합정,망원역,동교/연남,56.7,41.4,51.8,6142.880911041509,5307.45666803237,8564.567261154745,49.67696857876109
MA010120220808231681,이미지팩토리,M1,과학·기술,M113,사진 촬영,M11301,사진촬영업,M73302,상업용 사진 촬영업,11680,강남구,11680545,압구정동,1168010700,신사동,1168010700105910013,서울특별시 강남구 신사동 591-13,116804166147,서울특별시 강남구 논현로154길,서울특별시 강남구 논현로154길 7,135893,6025,127.02875381417,37.5216481489056,서울특별시,강남구,신사동,591-13,강남구 신사동,27,560,41,0,논현역,도산대로,신사역,66.1,45.5,71.4,7540.143513555651,6355.1677108818685,5746.054809483019,61.00741795607313
MA010120220803204268,포토이즘박스,M1,과학·기술,M113,사진 촬영,M11301,사진촬영업,S96999,그 외 기타 달리 분류되지 않은 개인 서비스업,11290,성북구,11290705,종암동,1129013500,종암동,1129013500100160016,서울특별시 성북구 종암동 16-16,112903005036,서울특별시 성북구 종암로,서울특별시 성북구 종암로 98-4,136858,2797,127.03490653679,37.5989813338642,서울특별시,성북구,종암동,16-16,성북구 종암동,32,52,42,0,청량리,미아사거리,성신여대,40.6,37.5,53.3,5681.225191115499,6813.8315970449,3807.801410949303,44.56468021632844
MA0101202306A0016154,그믐달셀프스튜디오,M1,과학·기술,M113,사진 촬영,M11301,사진촬영업,M73301,인물 사진 및 행사용 영상 촬영업,11170,용산구,11170555,청파동,1117011000,청파동2가,1117011000100630021,서울특별시 용산구 청파동2가 63-21,111704106365,서울특별시 용산구 청파로47길,서울특별시 용산구 청파로47길 78,140132,4310,126.966175792409,37.545093776067,서울특별시,용산구,청파동2가,63-21,용산구 청파동2가,82,163,36,0,숙명여대,공덕역,용산역,43.6,60.6,34.1,3566.224935123975,1839.688480915254,4811.65064339483,48.05642948029098
MA0101202301A0034280,모노맨션,M1,과학·기술,M113,사진 촬영,M11301,사진촬영업,M73301,인물 사진 및 행사용 영상 촬영업,11710,송파구,11710650,잠실본동,1171010100,잠실동,1171010100101850007,서울특별시 송파구 잠실동 185-7,117104169204,서울특별시 송파구 백제고분로7길,서울특별시 송파구 백제고분로7길 54,138861,5559,127.084818810062,37.5106614895471,서울특별시,송파구,잠실동,185-7,송파구 잠실동,46,266,85,0,잠실새내역,잠실/송파,뚝섬,32.5,34.3,51.0,11937.476289004624,11117.545247782147,9441.35525631617,39.654640626133194
MA0101202209A0073207,그믐달셀프스튜디오,M1,과학·기술,M113,사진 촬영,M11301,사진촬영업,M73301,인물 사진 및 행사용 영상 촬영업,11440,마포구,11440660,서교동,1144012000,서교동,1144012000103660012,서울특별시 마포구 서교동 366-12,114403113015,서울특별시 마포구 어울마당로,서울특별시 마포구 어울마당로 79,121893,4042,126.921420292813,37.5521270193499,서울특별시,마포구,서교동,366-12,마포구 서교동,43,977,78,0,홍대/합정,동교/연남,망원역,56.7,51.8,41.4,5612.9901835711835,4842.832754145927,8080.525452859972,50.574944709147346
MA010120220812582309,수스튜디오,M1,과학·기술,M113,사진 촬영,M11301,사진촬영업,M73301,인물 사진 및 행사용 영상 촬영업,11140,중구,11140540,회현동,1114012000,봉래동2가,1114012000101220000,서울특별시 중구 봉래동2가 122,111403101023,서울특별시 중구 청파로,서울특별시 중구 청파로 426,100162,4509,126.969491243056,37.5574400165377,서울특별시,중구,봉래동2가,122,중구 봉래동2가,50,216,48,0,남대문,숙명여대,시청,64.3,43.6,87.6,2171.0821767880598,588.1662526025995,3864.6282018262373,59.721962107001715
MA0101202305A0200537,그믐달셀프스튜디오,M1,과학·기술,M113,사진 촬영,M11301,사진촬영업,M73301,인물 사진 및 행사용 영상 촬영업,11440,마포구,11440680,합정동,1144012200,합정동,1144012200104120019,서울특별시 마포구 합정동 412-19,114404139090,서울특별시 마포구 독막로3길,서울특별시 마포구 독막로3길 8,121883,4047,126.916648382959,37.5487224546166,서울특별시,마포구,합정동,412-19,마포구 합정동,34,780,60,0,홍대/합정,망원역,동교/연남,56.7,41.4,51.8,6164.438468565025,5333.917902906274,8590.1658378631,49.67889139955044
MA010120220813072663,포토이즘컬러드,M1,과학·기술,M113,사진 촬영,M11301,사진촬영업,M73301,인물 사진 및 행사용 영상 촬영업,11620,관악구,11620645,서원동,1162010200,신림동,1162010200116400044,서울특별시 관악구 신림동 1640-44,116203120005,서울특별시 관악구 신림로,서울특별시 관악구 신림로 323,151930,8776,126.929535090992,37.4832168596343,서울특별시,관악구,신림동,1640-44,관악구 신림동,32,357,121,0,신림역,서울대입구역,독산/시흥,70.9,60.6,31.2,11129.353647724087,9432.735115945665,12060.537737802753,54.727623365319964
MA010120220805458753,스튜디오8,M1,과학·기술,M113,사진 촬영,M11301,사진촬영업,M73302,상업용 사진 촬영업,11110,종로구,11110615,종로1.2.3.4가동,1111013800,종로2가,1111013800100750004,서울특별시 종로구 종로2가 75-4,111103100013,서울특별시 종로구 종로,서울특별시 종로구 종로 82-1,110122,3190,126.986638892883,37.5699327230244,서울특별시,종로구,종로2가,75-4,종로구 종로2가,44,683,64,0,명동,충무로,시청,140.4,53.4,87.6,1049.541143562031,1489.2605004006357,2041.8642944783687,96.41065376447216
MA010120220806154653,셀픽스,M1,과학·기술,M113,사진 촬영,M11301,사진촬영업,S96999,그 외 기타 달리 분류되지 않은 개인 서비스업,11440,마포구,11440680,합정동,1144012200,합정동,1144012200104120024,서울특별시 마포구 합정동 412-24,114404139430,서울특별시 마포구 양화로6길,서울특별시 마포구 양화로6길 54,121883,4047,126.917193213133,37.5486103171789,서울특별시,마포구,합정동,412-24,마포구 합정동,36,770,60,0,홍대/합정,망원역,동교/연남,56.7,41.4,51.8,6128.678817707447,5290.086033712258,8547.743527554801,49.67570701069979
MA010120220806242270,포토그레이,M1,과학·기술,M113,사진 촬영,M11301,사진촬영업,S96999,그 외 기타 달리 분류되지 않은 개인 서비스업,11650,서초구,11650531,서초4동,1165010800,서초동,1165010800113080010,서울특별시 서초구 서초동 1308-10,116504163435,서울특별시 서초구 서초대로77길,서울특별시 서초구 서초대로77길 37,137856,6612,127.025085764296,37.5009838132703,서울특별시,서초구,서초동,1308-10,서초구 서초동,33,541,84,1,강남대로,교대역,논현역,86.3,41.0,66.1,9323.456026613425,7887.464542886694,7905.145221015715,63.841939859715325
MA010120220808098178,인생네컷,M1,과학·기술,M113,사진 촬영,M11301,사진촬영업,M73301,인물 사진 및 행사용 영상 촬영업,11710,송파구,11710562,방이2동,1171011100,방이동,1171011100100340002,서울특별시 송파구 방이동 34-2,117104169374,서울특별시 송파구 오금로11길,서울특별시 송파구 오금로11길 11-8,138827,5542,127.108736083943,37.5149712259466,서울특별시,송파구,방이동,34-2,송파구 방이동,25,251,80,0,잠실/송파,잠실새내역,가락시장,34.3,32.5,30.7,13430.055817180903,12804.83671869602,10745.884028564155,32.43467539532207
MA010120220808337558,포토이즘박스,M1,과학·기술,M113,사진 촬영,M11301,사진촬영업,M73301,인물 사진 및 행사용 영상 촬영업,11740,강동구,11740650,성내2동,1174010800,성내동,1174010800100420005,서울특별시 강동구 성내동 42-5,117404172411,서울특별시 강동구 천호옛14길,서울특별시 강동구 천호옛14길 23,134840,5379,127.126746302806,37.5361814909945,서울특별시,강동구,성내동,42-5,강동구 성내동,22,257,70,0,천호,잠실/송파,잠실새내역,56.1,34.3,32.5,13908.926505941767,13638.334180667769,11046.468700523334,40.62931361301597
MA010120220810043669,매직포토,M1,과학·기술,M113,사진 촬영,M11301,사진촬영업,M73301,인물 사진 및 행사용 영상 촬영업,11410,서대문구,11410585,신촌동,1141011200,대현동,1141011200100400034,서울특별시 서대문구 대현동 40-34,114104136312,서울특별시 서대문구 이화여대1길,서울특별시 서대문구 이화여대1길 15,120808,3766,126.94490013454,37.557204795487,서울특별시,서대문구,대현동,40-34,서대문구 대현동,103,277,60,0,신촌/이대,공덕역,동교/연남,47.5,60.6,51.8,3550.0516725170883,2706.5882767621115,5930.642729541858,53.69911150134615
MA010120220811229811,포토이즘박스,M1,과학·기술,M113,사진 촬영,M11301,사진촬영업,S96999,그 외 기타 달리 분류되지 않은 개인 서비스업,11260,중랑구,11260580,상봉1동,1126010200,상봉동,1126010200105000000,서울특별시 중랑구 상봉동 500,112603005032,서울특별시 중랑구 망우로,서울특별시 중랑구 망우로 353,131221,2087,127.091605360196,37.5983230687909,서울특별시,중랑구,상봉동,500,중랑구 상봉동,46,213,96,0,상봉역,경희대,청량리,46.5,46.7,40.6,10382.579555370547,11117.282778886303,7837.771465503901,44.40022061068631
MA010120220812025482,포토이즘,M1,과학·기술,M113,사진 촬영,M11301,사진촬영업,M73301,인물 사진 및 행사용 영상 촬영업,11620,관악구,11620645,서원동,1162010200,신림동,1162010200116400040,서울특별시 관악구 신림동 1640-40,116204160541,서울특별시 관악구 신림로59길,서울특별시 관악구 신림로59길 10,151930,8776,126.929174343966,37.4831415064803,서울특별시,관악구,신림동,1640-40,관악구 신림동,32,355,121,0,신림역,서울대입구역,독산/시흥,70.9,60.6,31.2,11149.257432940614,9454.010769387067,12086.060907182691,54.728460917723694
MA010120220812310532,하루필름,M1,과학·기술,M113,사진 촬영,M11301,사진촬영업,S96999,그 외 기타 달리 분류되지 않은 개인 서비스업,11200,성동구,11200550,사근동,1120010700,행당동,1120010700100030007,서울특별시 성동구 행당동 3-7,112004109208,서울특별시 성동구 마조로7길,서울특별시 성동구 마조로7길 13,133817,4760,127.039769474855,37.5607086169916,서울특별시,성동구,행당동,3-7,성동구 행당동,77,184,52,0,왕십리,압구정,동대문,45.0,50.6,48.0,5758.0114739745095,5693.735768646967,2898.1051257613453,47.886074802723556
MA010120220812403599,추억저장소,M1,과학·기술,M113,사진 촬영,M11301,사진촬영업,M73303,사진 처리업,11260,중랑구,11260565,면목본동,1126010100,면목동,1126010100104830022,서울특별시 중랑구 면목동 483-22,112603005027,서울특별시 중랑구 면목로,서울특별시 중랑구 면목로 407,131201,2146,127.087548028445,37.5883802764632,서울특별시,중랑구,면목동,483-22,중랑구 면목동,34,268,123,0,상봉역,경희대,군자,46.5,46.7,32.1,9820.858328182125,10401.87131250585,7137.31889484257,41.24022001445765
MA010120220813554243,셀픽스,M1,과학·기술,M113,사진 촬영,M11301,사진촬영업,M73301,인물 사진 및 행사용 영상 촬영업,11350,노원구,11350595,공릉1동,1135010300,공릉동,1135010300105060036,서울특별시 노원구 공릉동 506-36,113504130179,서울특별시 노원구 동일로184길,서울특별시 노원구 동일로184길 69,139806,1843,127.07733838693,37.6247570822475,서울특별시,노원구,공릉동,506-36,노원구 공릉동,45,122,58,0,상봉역,상계역,경희대,46.5,26.2,46.7,10350.610422612866,11525.891483841213,8430.87646320823,40.282225588701145
MA010120220814211629,하루필름,M1,과학·기술,M113,사진 촬영,M11301,사진촬영업,M73301,인물 사진 및 행사용 영상 촬영업,11740,강동구,11740620,천호3동,1174010900,천호동,1174010900104110054,서울특별시 강동구 천호동 411-54,117404172367,서울특별시 강동구 천호대로157길,서울특별시 강동구 천호대로157길 34,134871,5335,127.127695579428,37.5391980333517,서울특별시,강동구,천호동,411-54,강동구 천호동,25,253,68,0,천호,잠실/송파,잠실새내역,56.1,34.3,32.5,13886.253780798987,13659.875187787504,11012.52224984494,40.63159118080784
MA0101202302A0110438,모노맨션,M1,과학·기술,M113,사진 촬영,M11301,사진촬영업,M73301,인물 사진 및 행사용 영상 촬영업,11620,관악구,11620645,서원동,1162010200,신림동,1162010200116400001,서울특별시 관악구 신림동 1640-1,116202000003,서울특별시 관악구 남부순환로,서울특별시 관악구 남부순환로 1598,151930,8776,126.928317553709,37.4837554622555,서울특별시,관악구,신림동,1640-1,관악구 신림동,32,355,117,0,신림역,서울대입구역,독산/시흥,70.9,60.6,31.2,11115.71070936521,9425.733591670365,12076.002911262589,54.737331257394715
MA010120220800196163,더스튜디오,M1,과학·기술,M113,사진 촬영,M11301,사진촬영업,M73302,상업용 사진 촬영업,11680,강남구,11680650,역삼2동,1168010100,역삼동,1168010100107290020,서울특별시 강남구 역삼동 729-20,116804166644,서울특별시 강남구 역삼로33길,서울특별시 강남구 역삼로33길 16,135921,6225,127.041633664847,37.4981907929972,서울특별시,강남구,역삼동,729-20,강남구 역삼동,25,238,53,0,강남대로,논현역,테헤란로,86.3,66.1,69.8,10326.238590706324,9020.674485769085,8575.080425511514,73.74662142694862
MA010120220800369207,사진촬영업,M1,과학·기술,M113,사진 촬영,M11301,사진촬영업,M73301,인물 사진 및 행사용 영상 촬영업,11680,강남구,11680640,역삼1동,1168010100,역삼동,1168010100106710030,서울특별시 강남구 역삼동 671-30,116804166209,서울특별시 강남구 논현로98길,서울특별시 강남구 논현로98길 32,135915,6140,127.038162059715,37.5043348075093,서울특별시,강남구,역삼동,671-30,강남구 역삼동,23,246,45,0,논현역,강남대로,도산대로,66.1,86.3,45.5,9588.47184723962,8305.412706477613,7830.417287548476,65.77438452970992
MA010120220801883775,라이트하우스,M1,과학·기술,M113,사진 촬영,M11301,사진촬영업,M73301,인물 사진 및 행사용 영상 촬영업,11650,서초구,11650510,서초1동,1165010800,서초동,1165010800116570008,서울특별시 서초구 서초동 1657-8,116504163416,서울특별시 서초구 서초대로52길,서울특별시 서초구 서초대로52길 22,137881,6634,127.014381787425,37.4927584662974,서울특별시,서초구,서초동,1657-8,서초구 서초동,31,182,60,0,교대역,남부터미널,강남대로,41.0,39.0,86.3,9792.005588722777,8220.449955969312,8710.067200395091,55.5749729175462
MA010120220803272209,하루필름,M1,과학·기술,M113,사진 촬영,M11301,사진촬영업,S96999,그 외 기타 달리 분류되지 않은 개인 서비스업,11410,서대문구,11410585,신촌동,1141011600,창천동,1141011600100130027,서울특별시 서대문구 창천동 13-27,114104136067,서울특별시 서대문구 명물길,서울특별시 서대문구 명물길 20,120833,3777,126.937909163679,37.5577458094583,서울특별시,서대문구,창천동,13-27,서대문구 창천동,79,369,67,0,신촌/이대,동교/연남,공덕역,47.5,51.8,60.6,4036.344983247427,3315.975576654489,6514.891591823929,52.608659010091245
MA010120220803644961,아토스튜디오,M1,과학·기술,M113,사진 촬영,M11301,사진촬영업,M73301,인물 사진 및 행사용 영상 촬영업,11170,용산구,11170625,한강로동,1117012500,한강로2가,1117012500100020196,서울특별시 용산구 한강로2가 2-196,111703005018,서울특별시 용산구 새창로,서울특별시 용산구 새창로 213,140871,4376,126.967248983334,37.5304611874171,서울특별시,용산구,한강로2가,2-196,용산구 한강로2가,25,226,34,0,용산역,숙명여대,공덕역,34.1,43.6,60.6,5128.001921804094,3353.1870427517038,5870.627639676271,45.57027228238501
MA010120220803766673,스튜디오8,M1,과학·기술,M113,사진 촬영,M11301,사진촬영업,M73301,인물 사진 및 행사용 영상 촬영업,11650,서초구,11650540,잠원동,1165010600,잠원동,1165010600100340011,서울특별시 서초구 잠원동 34-11,116504163458,서울특별시 서초구 신반포로43길,서울특별시 서초구 신반포로43길 35,137904,6529,127.017106886509,37.5117573637568,서울특별시,서초구,잠원동,34-11,서초구 잠원동,26,339,78,0,신사역,논현역,교대역,71.4,66.1,41.0,7938.561781279506,6501.984213797892,6624.01569643995,59.14780442998422
MA010120220803834045,팝콘스튜디오,M1,과학·기술,M113,사진 촬영,M11301,사진촬영업,M73301,인물 사진 및 행사용 영상 촬영업,11110,종로구,11110650,혜화동,1111017200,명륜4가,1111017200100580002,서울특별시 종로구 명륜4가 58-2,111104100032,서울특별시 종로구 대명길,서울특별시 종로구 대명길 35,110530,3078,126.999698023317,37.5829470149137,서울특별시,종로구,명륜4가,58-2,종로구 명륜4가,72,180,27,0,혜화동,동대문,을지로,51.4,48.0,57.3,2112.049802576669,3336.2625430466514,1579.8308849703235,52.79387088870291
MA010120220804024763,스튜디오8,M1,과학·기술,M113,사진 촬영,M11301,사진촬영업,M73301,인물 사진 및 행사용 영상 촬영업,11680,강남구,11680521,논현1동,1168010800,논현동,1168010800100390013,서울특별시 강남구 논현동 39-13,116804166133,서울특별시 강남구 논현로135길,서울특별시 강남구 논현로135길 27,135815,6045,127.027698318906,37.5149356361693,서울특별시,강남구,논현동,39-13,강남구 논현동,27,506,82,0,논현역,신사역,도산대로,66.1,71.4,45.5,8096.459830299726,6812.635082966468,6438.393139549588,60.710779640587916
MA010120220804418574,엘스튜디오,M1,과학·기술,M113,사진 촬영,M11301,사진촬영업,M73301,인물 사진 및 행사용 영상 촬영업,11710,송파구,11710680,잠실3동,1171010100,잠실동,1171010100100400001,서울특별시 송파구 잠실동 40-1,117102005011,서울특별시 송파구 송파대로,서울특별시 송파구 송파대로 521,138721,5554,127.100801051691,37.5116492541803,서울특별시,송파구,잠실동,40-1,송파구 잠실동,24,279,92,0,잠실/송파,잠실새내역,가락시장,34.3,32.5,30.7,13027.661384166375,12318.418398017184,10412.838338339707,32.43418870410699
MA010120220804958168,모노맨션,M1,과학·기술,M113,사진 촬영,M11301,사진촬영업,M73301,인물 사진 및 행사용 영상 촬영업,11110,종로구,11110615,종로1.2.3.4가동,1111013700,낙원동,1111013700101190000,서울특별시 종로구 낙원동 119,111104100051,서울특별시 종로구 돈화문로11길,서울특별시 종로구 돈화문로11길 34-3,110320,3133,126.989441686899,37.5727860194335,서울특별시,종로구,낙원동,119,종로구 낙원동,51,623,58,0,충무로,명동,광화문,53.4,140.4,83.2,1114.3914984475896,1890.4381130535662,1798.9803161934456,89.10158639281522
MA010120220805200409,폴라스튜디오,M1,과학·기술,M113,사진 촬영,M11301,사진촬영업,S96999,그 외 기타 달리 분류되지 않은 개인 서비스업,11440,마포구,11440660,서교동,1144012000,서교동,1144012000103960031,서울특별시 마포구 서교동 396-31,114404139090,서울특별시 마포구 독막로3길,서울특별시 마포구 독막로3길 18,121840,4047,126.916881050856,37.5490669841738,서울특별시,마포구,서교동,396-31,마포구 서교동,38,785,60,0,홍대/합정,망원역,동교/연남,56.7,41.4,51.8,6127.812840517073,5305.061194929967,8559.447740670801,49.67890027957575
MA0101202302A0015032,시안사진관,M1,과학·기술,M113,사진 촬영,M11301,사진촬영업,M73301,인물 사진 및 행사용 영상 촬영업,11680,강남구,11680531,논현2동,1168010800,논현동,1168010800101110021,서울특별시 강남구 논현동 111-21,116804166463,서울특별시 강남구 선릉로135길,서울특별시 강남구 선릉로135길 3,135820,6059,127.040331407151,37.518643168933,서울특별시,강남구,논현동,111-21,강남구 논현동,33,518,25,0,도산대로,청담,논현역,45.5,63.0,66.1,8444.294546407873,7351.642765549925,6425.354909801184,58.676892870716074
MA0101202307A0029168,시안사진관,M1,과학·기술,M113,사진 촬영,M11301,사진촬영업,M73301,인물 사진 및 행사용 영상 촬영업,11500,강서구,11500603,가양1동,1150010500,마곡동,1150010500107710004,서울특별시 강서구 마곡동 771-4,115003155054,서울특별시 강서구 마곡중앙6로,서울특별시 강서구 마곡중앙6로 21,157805,7801,126.829602811066,37.560821502214,서울특별시,강서구,마곡동,771-4,강서구 마곡동,36,281,30,0,화곡,목동,오류동역,28.7,35.1,47.1,13170.320889184255,12876.282079167819,15952.50800169411,36.62449630652941
MA010120220808074966,인생네컷,M1,과학·기술,M113,사진 촬영,M11301,사진촬영업,S96999,그 외 기타 달리 분류되지 않은 개인 서비스업,11380,은평구,11380551,갈현1동,1138010400,갈현동,1138010400103990007,서울특별시 은평구 갈현동 399-7,113804133160,서울특별시 은평구 연서로29길,서울특별시 은평구 연서로29길 8,122809,3330,126.919244201751,37.6189097974931,서울특별시,은평구,갈현동,399-7,은평구 갈현동,52,199,79,0,연신내,불광역,동교/연남,42.4,38.8,51.8,7012.723867493721,8204.85952060064,9587.42239442075,44.07878931445163
MA010120220808200171,제이에스스튜디오,M1,과학·기술,M113,사진 촬영,M11301,사진촬영업,M73301,인물 사진 및 행사용 영상 촬영업,11500,강서구,11500611,발산1동,1150010500,마곡동,1150010500108000015,서울특별시 강서구 마곡동 800-15,115003155052,서울특별시 강서구 마곡중앙2로,서울특별시 강서구 마곡중앙2로 35,157210,7806,126.830518705215,37.5579833207238,서울특별시,강서구,마곡동,800-15,강서구 마곡동,47,194,26,0,화곡,목동,오류동역,28.7,35.1,47.1,13134.416122826027,12797.180777765048,15897.951235656368,36.624404680464195
MA010120220808137764,나인포토,M1,과학·기술,M113,사진 촬영,M11301,사진촬영업,M73301,인물 사진 및 행사용 영상 촬영업,11710,송파구,11710562,방이2동,1171011100,방이동,1171011100100670002,서울특별시 송파구 방이동 67-2,117104169376,서울특별시 송파구 오금로15길,서울특별시 송파구 오금로15길 5-12,138829,5548,127.108639846323,37.5126007165504,서울특별시,송파구,방이동,67-2,송파구 방이동,18,277,92,0,잠실/송파,가락시장,잠실새내역,34.3,30.7,32.5,13557.412055326997,12902.150694412856,10893.926089369,32.484212044359154
MA010120220808708077,추억저장소,M1,과학·기술,M113,사진 촬영,M11301,사진촬영업,M73303,사진 처리업,11620,관악구,11620665,서림동,1162010200,신림동,1162010200101080082,서울특별시 관악구 신림동 108-82,116204160514,서울특별시 관악구 신림로30길,서울특별시 관악구 신림로30길 11-23,151855,8837,126.936415433308,37.4732412862431,서울특별시,관악구,신림동,108-82,관악구 신림동,41,102,31,0,신림역,서울대입구역,독산/시흥,70.9,60.6,31.2,11962.240447133852,10223.216125704817,12651.027284365173,54.61995164285822
MA010120220810574596,포토시그니처,M1,과학·기술,M113,사진 촬영,M11301,사진촬영업,S96999,그 외 기타 달리 분류되지 않은 개인 서비스업,11200,성동구,11200670,성수2가1동,1120011500,성수동2가,1120011500103210007,서울특별시 성동구 성수동2가 321-7,112004109413,서울특별시 성동구 연무장길,서울특별시 성동구 연무장길 50,133827,4781,127.054815796974,37.5424936849136,서울특별시,성동구,성수동2가,321-7,성동구 성수동2가,45,272,74,0,건대입구,청담,뚝섬,46.7,63.0,51.0,7777.494016118717,7286.622426102301,5099.411521825744,53.51104173485422
MA010120220810537851,스튜디오엠,M1,과학·기술,M113,사진 촬영,M11301,사진촬영업,M73301,인물 사진 및 행사용 영상 촬영업,11560,영등포구,11560605,문래동,1156012300,문래동5가,1156012300100100000,서울특별시 영등포구 문래동5가 10,115604154444,서울특별시 영등포구 선유로3길,서울특별시 영등포구 선유로3길 10,150095,7285,126.886805284563,37.5160344708142,서울특별시,영등포구,문래동5가,10,영등포구 문래동5가,40,186,18,0,목동,영등포역,당산역,35.1,34.1,37.1,10411.508106583693,9219.92130170321,12464.919746883981,35.35526939035785
MA010120220812060584,코닥사진관,M1,과학·기술,M113,사진 촬영,M11301,사진촬영업,M73301,인물 사진 및 행사용 영상 촬영업,11260,중랑구,11260565,면목본동,1126010100,면목동,1126010100105010004,서울특별시 중랑구 면목동 501-4,112603005027,서울특별시 중랑구 면목로,서울특별시 중랑구 면목로 361,131818,2220,127.088231510187,37.5843308508711,서울특별시,중랑구,면목동,501-4,중랑구 면목동,27,161,87,0,상봉역,군자,경희대,46.5,32.1,46.7,9828.18688426975,10333.129411492237,7089.4735947800655,42.104126548230504
MA010120220812147838,더스튜디오,M1,과학·기술,M113,사진 촬영,M11301,사진촬영업,M73301,인물 사진 및 행사용 영상 촬영업,11290,성북구,11290660,길음1동,1129013400,길음동,1129013400111790000,서울특별시 성북구 길음동 1179,112904121284,서울특별시 성북구 삼양로9길,서울특별시 성북구 삼양로9길 18,136807,2724,127.022075575949,37.6085168318303,서울특별시,성북구,길음동,1179,성북구 길음동,65,133,34,0,미아사거리,성신여대,청량리,37.5,53.3,40.6,5347.191346924508,6787.138289213269,4289.117491953977,43.2804582693709
MA010120220813116715,와이제이사진관,M1,과학·기술,M113,사진 촬영,M11301,사진촬영업,M73301,인물 사진 및 행사용 영상 촬영업,11710,송파구,11710562,방이2동,1171011100,방이동,1171011100100650000,서울특별시 송파구 방이동 65,117103123014,서울특별시 송파구 오금로,서울특별시 송파구 오금로 91,138828,5548,127.107638559647,37.5140438599533,서울특별시,송파구,방이동,65,송파구 방이동,26,260,81,0,잠실/송파,잠실새내역,가락시장,34.3,32.5,30.7,13398.909533714503,12756.430701054456,10727.563619637504,32.434815020743486
MA010120220813123546,포토그레이,M1,과학·기술,M113,사진 촬영,M11301,사진촬영업,M73301,인물 사진 및 행사용 영상 촬영업,11110,종로구,11110600,가회동,1111014700,재동,1111014700100840040,서울특별시 종로구 재동 84-40,111103100004,서울특별시 종로구 북촌로,서울특별시 종로구 북촌로 14,110260,3059,126.98571409203,37.5780251384055,서울특별시,종로구,재동,84-40,종로구 재동,62,361,38,0,광화문,종로,시청,83.2,68.0,87.6,764.3548358506753,2202.802751108133,2252.2810844169326,80.05815135779687
MA010120220801021670,제이에스스튜디오,M1,과학·기술,M113,사진 촬영,M11301,사진촬영업,M73301,인물 사진 및 행사용 영상 촬영업,11710,송파구,11710600,석촌동,1171010500,석촌동,1171010500102470011,서울특별시 송파구 석촌동 247-11,117104169024,서울특별시 송파구 가락로5길,서울특별시 송파구 가락로5길 30,138845,5681,127.101289656978,37.5020296647032,서울특별시,송파구,석촌동,247-11,송파구 석촌동,34,144,72,0,잠실/송파,가락시장,잠실새내역,34.3,30.7,32.5,13676.820861068087,12857.401082081931,11152.280361628007,32.48043124843151
MA010120220801033179,라이트하우스,M1,과학·기술,M113,사진 촬영,M11301,사진촬영업,M73302,상업용 사진 촬영업,11170,용산구,11170625,한강로동,1117012800,한강로3가,1117012800100400793,서울특별시 용산구 한강로3가 40-793,111704106276,서울특별시 용산구 이촌로29길,서울특별시 용산구 이촌로29길 21-14,140880,4380,126.960105376896,37.5250733182752,서울특별시,용산구,한강로3가,40-793,용산구 한강로3가,11,59,5,0,용산역,노량진,공덕역,34.1,26.4,60.6,5850.601430885101,4101.272308047227,6734.867863517863,39.098475570878065
MA010120220801376773,우리동네사진관,M1,과학·기술,M113,사진 촬영,M11301,사진촬영업,M73301,인물 사진 및 행사용 영상 촬영업,11110,종로구,11110650,혜화동,1111017200,명륜4가,1111017200100080001,서울특별시 종로구 명륜4가 8-1,111104100032,서울특별시 종로구 대명길,서울특별시 종로구 대명길 9,110530,3078,127.000937894253,37.5833629838218,서울특별시,종로구,명륜4가,8-1,종로구 명륜4가,72,188,32,0,혜화동,동대문,을지로,51.4,48.0,57.3,2230.8703550164273,3442.618865265172,1561.2009035770811,52.82235145998669
MA010120220803071098,포토그레이,M1,과학·기술,M113,사진 촬영,M11301,사진촬영업,M73301,인물 사진 및 행사용 영상 촬영업,11410,서대문구,11410685,홍은2동,1141011800,홍은동,1141011800104090037,서울특별시 서대문구 홍은동 409-37,114103112003,서울특별시 서대문구 거북골로,서울특별시 서대문구 거북골로 19,120848,3662,126.925247994337,37.5803193469003,서울특별시,서대문구,홍은동,409-37,서대문구 홍은동,60,64,22,0,동교/연남,신촌/이대,망원역,51.8,47.5,41.4,4638.1115728874365,4967.325183244272,7529.422976560842,47.35826708823376
MA010120220804019150,봄스튜디오,M1,과학·기술,M113,사진 촬영,M11301,사진촬영업,M73302,상업용 사진 촬영업,11290,성북구,11290525,성북동,1129010100,성북동,1129010100200250168,서울특별시 성북구 성북동 산25-168,112904121334,서울특별시 성북구 성북로23길,서울특별시 성북구 성북로23길 85-4,136822,2879,126.992410427355,37.5927424019171,서울특별시,성북구,성북동,산25-168,성북구 성북동,54,12,1,0,혜화동,종로,광화문,51.4,68.0,83.2,2284.501160396617,3936.763650014742,2842.0290989446617,67.00892905525613
MA0101202301A0046502,포토이즘박스,M1,과학·기술,M113,사진 촬영,M11301,사진촬영업,S96999,그 외 기타 달리 분류되지 않은 개인 서비스업,11590,동작구,11590620,사당1동,1159010700,사당동,1159010700110320033,서울특별시 동작구 사당동 1032-33,115904157156,서울특별시 동작구 동작대로3길,서울특별시 동작구 동작대로3길 20,156826,7015,126.980334534992,37.4784310854308,서울특별시,동작구,사당동,1032-33,동작구 사당동,27,308,95,0,사당,서울대입구역,남부터미널,44.3,60.6,39.0,10825.542782053872,9061.645877681962,10612.77283124588,48.30070086436576
MA0101202209A0074529,폴라스튜디오,M1,과학·기술,M113,사진 촬영,M11301,사진촬영업,S96999,그 외 기타 달리 분류되지 않은 개인 서비스업,11470,양천구,11470510,목1동,1147010200,목동,1147010200104060180,서울특별시 양천구 목동 406-180,114703114014,서울특별시 양천구 오목로,서울특별시 양천구 오목로 337,158806,7999,126.874920693926,37.52479710547,서울특별시,양천구,목동,406-180,양천구 목동,34,109,33,0,목동,당산역,영등포역,35.1,37.1,34.1,10692.73709311569,9695.180712719033,12973.924065727106,35.503835684726084
MA0101202212A0064396,모노맨션,M1,과학·기술,M113,사진 촬영,M11301,사진촬영업,M73301,인물 사진 및 행사용 영상 촬영업,11710,송파구,11710562,방이2동,1171011100,방이동,1171011100100610007,서울특별시 송파구 방이동 61-7,117104169429,서울특별시 송파구 올림픽로32길,서울특별시 송파구 올림픽로32길 27,138828,5547,127.109768190909,37.5137896126242,서울특별시,송파구,방이동,61-7,송파구 방이동,23,260,84,0,잠실/송파,가락시장,잠실새내역,34.3,30.7,32.5,13575.166836943785,12940.355650005515,10896.454443098743,32.48472868543374
MA0106202301A0369383,사람사진으로쓰는이야기,M1,과학·기술,M113,사진 촬영,M11301,사진촬영업,M73303,사진 처리업,11680,강남구,11680531,논현2동,1168010800,논현동,1168010800100790004,서울특별시 강남구 논현동 79-4,116804166134,서울특별시 강남구 논현로136길,서울특별시 강남구 논현로136길 15,135995,6051,127.031244163198,37.5162803093862,서울특별시,강남구,논현동,79-4,강남구 논현동,24,384,36,0,논현역,도산대로,신사역,66.1,45.5,71.4,8150.686151907152,6923.911624271526,6380.273916647776,60.985953821111494
MA0101202302A0021782,포토시그니처,M1,과학·기술,M113,사진 촬영,M11301,사진촬영업,S96999,그 외 기타 달리 분류되지 않은 개인 서비스업,11140,중구,11140550,명동,1114012500,충무로2가,1114012500100090000,서울특별시 중구 충무로2가 9,111404103160,서울특별시 중구 명동8가길,서울특별시 중구 명동8가길 19,100860,4537,126.986033770682,37.5619623149204,서울특별시,중구,충무로2가,9,중구 충무로2가,36,580,77,0,명동,충무로,시청,140.4,53.4,87.6,1726.420745236522,970.6501732136062,2326.263802531983,91.1310454465145
MA0101202303A0106397,스튜디오앳,M1,과학·기술,M113,사진 촬영,M11301,사진촬영업,M73301,인물 사진 및 행사용 영상 촬영업,11650,서초구,11650610,방배2동,1165010100,방배동,1165010100104750004,서울특별시 서초구 방배동 475-4,116504163107,서울특별시 서초구 도구로1길,서울특별시 서초구 도구로1길 57,137819,6694,126.986560055022,37.4779079733122,서울특별시,서초구,방배동,475-4,서초구 방배동,34,230,75,0,사당,남부터미널,서울대입구역,44.3,39.0,60.6,10910.284280782522,9162.818584069397,10548.693377243395,47.78540943552015
MA0101202303A0009294,포토이즘박스,M1,과학·기술,M113,사진 촬영,M11301,사진촬영업,S96999,그 외 기타 달리 분류되지 않은 개인 서비스업,11350,노원구,11350560,월계1동,1135010200,월계동,1135010200104110053,서울특별시 노원구 월계동 411-53,113503110004,서울특별시 노원구 석계로,서울특별시 노원구 석계로 95,139846,1893,127.061161895929,37.6229084974692,서울특별시,노원구,월계동,411-53,노원구 월계동,46,50,40,0,경희대,미아사거리,청량리,46.7,37.5,40.6,9044.279894876365,10307.28132818061,7325.031443588456,41.66483319418796
MA0101202306A0013039,인생네컷,M1,과학·기술,M113,사진 촬영,M11301,사진촬영업,M73301,인물 사진 및 행사용 영상 촬영업,11560,영등포구,11560605,문래동,1156012000,문래동2가,1156012000100410001,서울특별시 영등포구 문래동2가 41-1,115604154054,서울특별시 영등포구 경인로79길,서울특별시 영등포구 경인로79길 13,150092,7290,126.893896678002,37.5130465610169,서울특별시,영등포구,문래동2가,41-1,영등포구 문래동2가,44,219,34,0,영등포역,당산역,목동,34.1,37.1,35.1,10162.31816005839,8884.770570713501,12096.496951130528,35.47786854315576
MA0101202308A0104874,코즈닉스튜디오,M1,과학·기술,M113,사진 촬영,M11301,사진촬영업,M73301,인물 사진 및 행사용 영상 촬영업,11215,광진구,11215730,군자동,1121510900,군자동,1121510900104630009,서울특별시 광진구 군자동 463-9,112152000008,서울특별시 광진구 천호대로,서울특별시 광진구 천호대로 502,143838,4994,127.07416683106,37.5589109530318,서울특별시,광진구,군자동,463-9,광진구 군자동,38,218,82,0,군자,건대입구,뚝섬,32.1,46.7,51.0,8749.735429647855,8733.2229607816,5855.115824598414,43.74746364421618
MA0101202310A0096836,비비드뮤지엄,M1,과학·기술,M113,사진 촬영,M11301,사진촬영업,M73301,인물 사진 및 행사용 영상 촬영업,11215,광진구,11215710,화양동,1121510700,화양동,1121510700100080099,서울특별시 광진구 화양동 8-99,112154112197,서울특별시 광진구 동일로22길,서울특별시 광진구 동일로22길 91,143914,5017,127.069306039372,37.5411220463313,서울특별시,광진구,화양동,8-99,광진구 화양동,56,414,136,0,건대입구,군자,뚝섬,46.7,32.1,51.0,8987.936611099805,8563.626484327226,6232.385267524821,43.6150416937045
MA0101202310A0005995,키다리아저씨사진관,M1,과학·기술,M113,사진 촬영,M11301,사진촬영업,M73301,인물 사진 및 행사용 영상 촬영업,11380,은평구,11380530,불광2동,1138010300,불광동,1138010300103100035,서울특별시 은평구 불광동 310-35,113803000008,서울특별시 은평구 통일로,서울특별시 은평구 통일로 852,122860,3345,126.921265432704,37.6193517767265,서울특별시,은평구,불광동,310-35,은평구 불광동,44,196,79,0,연신내,불광역,동교/연남,42.4,38.8,51.8,6916.992093654491,8137.990649511984,9466.821801180919,44.08289221160485
MA0101202311A0053156,코즈닉스튜디오,M1,과학·기술,M113,사진 촬영,M11301,사진촬영업,M73301,인물 사진 및 행사용 영상 촬영업,11290,성북구,11290575,동선동,1129011600,동선동1가,1129011600100030006,서울특별시 성북구 동선동1가 3-6,112904121095,서울특별시 성북구 동소문로20다길,서울특별시 성북구 동소문로20다길 11,136051,2845,127.017311584236,37.5918350635671,서울특별시,성북구,동선동1가,3-6,성북구 동선동1가,75,215,52,0,성신여대,혜화동,미아사거리,53.3,51.4,37.5,3936.6757814270827,5123.54348083921,2392.4302272034006,46.52528966319606
MA0101202311A0044960,아더스튜디오,M1,과학·기술,M113,사진 촬영,M11301,사진촬영업,M73301,인물 사진 및 행사용 영상 촬영업,11650,서초구,11650652,양재2동,1165010200,양재동,1165010200102560005,서울특별시 서초구 양재동 256-5,116504163498,서울특별시 서초구 언남길,서울특별시 서초구 언남길 51,137894,6777,127.043043199669,37.4736934406509,서울특별시,서초구,양재동,256-5,서초구 양재동,37,114,56,0,강남대로,남부터미널,교대역,86.3,39.0,41.0,12743.164831256343,11293.51281471656,11210.584905839314,54.7816110660917
MA010120220808727343,뉴페이스스튜디오,M1,과학·기술,M113,사진 촬영,M11301,사진촬영업,M73301,인물 사진 및 행사용 영상 촬영업,11215,광진구,11215847,자양4동,1121510500,자양동,1121510500100070021,서울특별시 광진구 자양동 7-21,112154112196,서울특별시 광진구 동일로20길,서울특별시 광진구 동일로20길 85,143841,5073,127.068231824221,37.5401494497684,서울특별시,광진구,자양동,7-21,광진구 자양동,47,424,138,0,건대입구,뚝섬,군자,46.7,51.0,32.1,8949.775227099479,8498.977000748235,6211.5471237257725,42.69417375069217
MA010120220807122485,아름다운사진,M1,과학·기술,M113,사진 촬영,M11301,사진촬영업,M73301,인물 사진 및 행사용 영상 촬영업,11620,관악구,11620685,신사동,1162010200,신림동,1162010200104670040,서울특별시 관악구 신림동 467-40,116204160208,서울특별시 관악구 남부순환로163다길,서울특별시 관악구 남부순환로163다길 23,151893,8763,126.922582372764,37.4855053982732,서울특별시,관악구,신림동,467-40,관악구 신림동,36,370,130,0,신림역,독산/시흥,서울대입구역,70.9,31.2,60.6,11148.242548715416,9490.355447027752,12233.123279879565,53.54742857263468
MA0101202306A0064122,하루필름,M1,과학·기술,M113,사진 촬영,M11301,사진촬영업,M73302,상업용 사진 촬영업,11140,중구,11140605,을지로동,1114016100,저동2가,1114016100100070002,서울특별시 중구 저동2가 7-2,111404103233,서울특별시 중구 을지로12길,서울특별시 중구 을지로12길 28,100032,4550,126.990551970111,37.565172703705,서울특별시,중구,저동2가,7-2,중구 저동2가,38,704,72,0,충무로,명동,시청,53.4,140.4,87.6,1662.8995365619205,1462.877714953855,1817.1033404882444,94.83958413317774
MA0106202304A0418115,더필름,M1,과학·기술,M113,사진 촬영,M11301,사진촬영업,M73301,인물 사진 및 행사용 영상 촬영업,11410,서대문구,11410585,신촌동,1141011200,대현동,1141011200100330015,서울특별시 서대문구 대현동 33-15,114104136322,서울특별시 서대문구 이화여대길,서울특별시 서대문구 이화여대길 58,120808,3765,126.94522212385,37.5592530338968,서울특별시,서대문구,대현동,33-15,서대문구 대현동,94,272,58,0,신촌/이대,공덕역,동교/연남,47.5,60.6,51.8,3397.92483373139,2661.745656275086,5847.631961301337,53.6799629984956
MA010120220812449964,포토시그니처,M1,과학·기술,M113,사진 촬영,M11301,사진촬영업,S96999,그 외 기타 달리 분류되지 않은 개인 서비스업,11200,성동구,11200550,사근동,1120010700,행당동,1120010700100190009,서울특별시 성동구 행당동 19-9,112003103002,서울특별시 성동구 마조로,서울특별시 성동구 마조로 21,133817,4760,127.040809885254,37.5598971216855,서울특별시,성동구,행당동,19-9,성동구 행당동,67,182,49,0,왕십리,압구정,동대문,45.0,50.6,48.0,5872.648044364904,5785.124079370036,3018.7261347877748,47.887780527798455
MA010120220811961935,포토이즘박스,M1,과학·기술,M113,사진 촬영,M11301,사진촬영업,S96999,그 외 기타 달리 분류되지 않은 개인 서비스업,11560,영등포구,11560605,문래동,1156012000,문래동2가,1156012000100140042,서울특별시 영등포구 문래동2가 14-42,115604154228,서울특별시 영등포구 도림로131길,서울특별시 영등포구 도림로131길 13,150092,7290,126.894305174024,37.5137261680668,서울특별시,영등포구,문래동2가,14-42,영등포구 문래동2가,42,223,29,0,영등포역,당산역,목동,34.1,37.1,35.1,10084.290632327722,8811.364728687713,12025.786865298878,35.478103376131784
MA0106202301A0369384,사람사진으로쓰는이야기,M1,과학·기술,M113,사진 촬영,M11301,사진촬영업,M73303,사진 처리업,11680,강남구,11680531,논현2동,1168010800,논현동,1168010800100850002,서울특별시 강남구 논현동 85-2,116804166130,서울특별시 강남구 논현로132길,서울특별시 강남구 논현로132길 31,135818,6053,127.032937733033,37.5156544404711,서울특별시,강남구,논현동,85-2,강남구 논현동,22,328,28,0,논현역,도산대로,신사역,66.1,45.5,71.4,8294.791909024612,7079.621575929381,6492.383427803787,60.997939982736405
MA010120220804016490,더스튜디오,M1,과학·기술,M113,사진 촬영,M11301,사진촬영업,M73301,인물 사진 및 행사용 영상 촬영업,11680,강남구,11680545,압구정동,1168010700,신사동,1168010700105920007,서울특별시 강남구 신사동 592-7,116804166516,서울특별시 강남구 압구정로30길,서울특별시 강남구 압구정로30길 78,135893,6025,127.028779223539,37.5223061255899,서울특별시,강남구,신사동,592-7,강남구 신사동,28,576,43,0,도산대로,논현역,압구정,45.5,66.1,50.6,7483.2576712464,6308.180413734186,5676.937466279874,54.26899958004807
MA010120220801047029,스튜디오밥,M1,과학·기술,M113,사진 촬영,M11301,사진촬영업,M73301,인물 사진 및 행사용 영상 촬영업,11650,서초구,11650540,잠원동,1165010600,잠원동,1165010600100140017,서울특별시 서초구 잠원동 14-17,116503121002,서울특별시 서초구 나루터로,서울특별시 서초구 나루터로 73,137902,6525,127.01779044609,37.5157006478671,서울특별시,서초구,잠원동,14-17,서초구 잠원동,17,318,58,1,신사역,논현역,압구정,71.4,66.1,50.6,7576.477667481451,6183.173948285835,6195.33122466161,62.39995866674977
MA010120220814145498,아더스튜디오,M1,과학·기술,M113,사진 촬영,M11301,사진촬영업,M73301,인물 사진 및 행사용 영상 촬영업,11680,강남구,11680640,역삼1동,1168010100,역삼동,1168010100107890017,서울특별시 강남구 역삼동 789-17,116804166192,서울특별시 강남구 논현로71길,서울특별시 강남구 논현로71길 26,135929,6249,127.037258104543,37.4945780215064,서울특별시,강남구,역삼동,789-17,강남구 역삼동,32,282,56,0,강남대로,교대역,논현역,86.3,41.0,66.1,10463.12032295906,9091.250589755822,8840.432899713192,63.94645141044661
MA010120220808779845,와이제이사진관,M1,과학·기술,M113,사진 촬영,M11301,사진촬영업,M73301,인물 사진 및 행사용 영상 촬영업,11650,서초구,11650581,반포4동,1165010700,반포동,1165010700100550006,서울특별시 서초구 반포동 55-6,116504163043,서울특별시 서초구 고무래로8길,서울특별시 서초구 고무래로8길 2,137803,6593,127.010506671376,37.5027638142378,서울특별시,서초구,반포동,55-6,서초구 반포동,36,45,14,0,교대역,강남대로,신사역,41.0,86.3,71.4,8630.93956509562,7070.407563721294,7590.108205124112,67.02101069529624
MA010120220810239398,수스튜디오,M1,과학·기술,M113,사진 촬영,M11301,사진촬영업,M73301,인물 사진 및 행사용 영상 촬영업,11215,광진구,11215750,중곡2동,1121510100,중곡동,1121510100100470024,서울특별시 광진구 중곡동 47-24,112153104007,서울특별시 광진구 능동로,서울특별시 광진구 능동로 352-1,143885,4927,127.081738272417,37.5608082240834,서울특별시,광진구,중곡동,47-24,광진구 중곡동,27,215,89,0,군자,건대입구,뚝섬,32.1,46.7,51.0,9363.783332598785,9401.725026246839,6466.902256585571,43.70800936764289
MA010120220807804015,포토시그니처,M1,과학·기술,M113,사진 촬영,M11301,사진촬영업,S96999,그 외 기타 달리 분류되지 않은 개인 서비스업,11620,관악구,11620645,서원동,1162010200,신림동,1162010200116400007,서울특별시 관악구 신림동 1640-7,116202000003,서울특별시 관악구 남부순환로,서울특별시 관악구 남부순환로 1606,151930,8776,126.929072840718,37.4839154895354,서울특별시,관악구,신림동,1640-7,관악구 신림동,33,355,120,0,신림역,서울대입구역,독산/시흥,70.9,60.6,31.2,11073.40354745785,9380.494753464694,12022.039123434954,54.7356810407361
MA010120220802514702,인생네컷,M1,과학·기술,M113,사진 촬영,M11301,사진촬영업,M73301,인물 사진 및 행사용 영상 촬영업,11710,송파구,11710650,잠실본동,1171010100,잠실동,1171010100101910007,서울특별시 송파구 잠실동 191-7,117104169204,서울특별시 송파구 백제고분로7길,서울특별시 송파구 백제고분로7길 24,138862,5560,127.081473101966,37.5104643188326,서울특별시,송파구,잠실동,191-7,송파구 잠실동,39,248,79,0,잠실새내역,잠실/송파,테헤란로,32.5,34.3,69.8,11717.436392356334,10872.194556970482,9251.763731296509,46.32379452066187
MA010120220805227736,하루필름,M1,과학·기술,M113,사진 촬영,M11301,사진촬영업,S96999,그 외 기타 달리 분류되지 않은 개인 서비스업,11170,용산구,11170650,이태원1동,1117013000,이태원동,1117013000101290004,서울특별시 용산구 이태원동 129-4,111704106307,서울특별시 용산구 이태원로26길,서울특별시 용산구 이태원로26길 16,140865,4391,126.993273390631,37.5336863953628,서울특별시,용산구,이태원동,129-4,용산구 이태원동,16,478,15,0,이태원,신사역,용산역,63.4,71.4,34.1,4893.509926556352,3321.0374462791488,4403.890101052917,56.81015723431098
MA0101202307A0002079,키다리아저씨사진관,M1,과학·기술,M113,사진 촬영,M11301,사진촬영업,M73301,인물 사진 및 행사용 영상 촬영업,11710,송파구,11710562,방이2동,1171011100,방이동,1171011100100640000,서울특별시 송파구 방이동 64,117104169374,서울특별시 송파구 오금로11길,서울특별시 송파구 오금로11길 6,138828,5548,127.107930494176,37.5142262767855,서울특별시,송파구,방이동,64,송파구 방이동,25,260,82,0,잠실/송파,잠실새내역,가락시장,34.3,32.5,30.7,13410.701373116555,12772.010039762374,10736.45595480681,32.43480836519121
MA010120220805962116,하루필름,M1,과학·기술,M113,사진 촬영,M11301,사진촬영업,M73301,인물 사진 및 행사용 영상 촬영업,11200,성동구,11200660,성수1가2동,1120011400,성수동1가,1120011400106680049,서울특별시 성동구 성수동1가 668-49,112004109318,서울특별시 성동구 서울숲2길,서울특별시 성동구 서울숲2길 45,133824,4768,127.043596479259,37.546440049218,서울특별시,성동구,성수동1가,668-49,성동구 성수동1가,41,154,30,0,왕십리,청담,압구정,45.0,63.0,50.6,6697.802317022761,6216.238197456169,4060.657491234841,52.83433388152743
MA0101202211A0092531,에브리세컨드,M1,과학·기술,M113,사진 촬영,M11301,사진촬영업,M73301,인물 사진 및 행사용 영상 촬영업,11200,성동구,11200660,성수1가2동,1120011400,성수동1가,1120011400106680023,서울특별시 성동구 성수동1가 668-23,112004109319,서울특별시 성동구 서울숲4길,서울특별시 성동구 서울숲4길 23-1,133824,4768,127.043677564521,37.5471795661395,서울특별시,성동구,성수동1가,668-23,성동구 성수동1가,45,150,31,0,왕십리,청담,압구정,45.0,63.0,50.6,6664.323477394743,6203.853695669803,4011.034176510024,52.826735043106936
